"","ServiceCode","ServiceURL","FullSiteCode","FullVariableCode","BeginDateTime","EndDateTime","SiteName","Latitude","Longitude","DataType","ValueType","SampleMedium","TimeUnits","TimeSupport"
"1","HYDRODATACZ-HR","http://hydrodata.info/chmi-h/cuahsi_1_1.asmx?wsdl","CHMI-H:956","CHMI-H:PRUTOK",2011-07-23,2015-08-10,"Otín",49.1285552978516,15.0526914596558,"Average","Field Observation","Water","hour",1
"30","HYDRODATACZ-HR","http://hydrodata.info/chmi-h/cuahsi_1_1.asmx?wsdl","CHMI-H:946","CHMI-H:PRUTOK",2011-07-22,2013-02-12,"Zárecí",49.3245658874512,13.6795320510864,"Average","Field Observation","Water","hour",1
"117","HYDRODATACZ-HR","http://hydrodata.info/chmi-h/cuahsi_1_1.asmx?wsdl","CHMI-H:914","CHMI-H:PRUTOK",2011-01-12,2015-08-10,"Šitbor",49.5031242370605,12.7822151184082,"Average","Field Observation","Water","hour",1
"175","HYDRODATACZ-HR","http://hydrodata.info/chmi-h/cuahsi_1_1.asmx?wsdl","CHMI-H:912","CHMI-H:PRUTOK",2011-01-12,2015-08-10,"Újezdec",49.5158920288086,13.1978464126587,"Average","Field Observation","Water","hour",1
"204","HYDRODATACZ-HR","http://hydrodata.info/chmi-h/cuahsi_1_1.asmx?wsdl","CHMI-H:121","CHMI-H:PRUTOK",2005-01-23,2015-08-10,"Uherský Brod",49.0313873291016,17.6627769470215,"Average","Field Observation","Water","hour",1
"205","HYDRODATACZ-HR","http://hydrodata.info/chmi-h/cuahsi_1_1.asmx?wsdl","CHMI-H:772","CHMI-H:PRUTOK",2010-05-30,2015-08-10,"Dolní Bory",49.422779083252,15.9869441986084,"Average","Field Observation","Water","hour",1
"206","HYDRODATACZ-HR","http://hydrodata.info/chmi-h/cuahsi_1_1.asmx?wsdl","CHMI-H:777","CHMI-H:PRUTOK",2010-05-30,2015-08-10,"Vranov - Hamry",48.8950004577637,15.8205556869507,"Average","Field Observation","Water","hour",1
"207","HYDRODATACZ-HR","http://hydrodata.info/chmi-h/cuahsi_1_1.asmx?wsdl","CHMI-H:88","CHMI-H:PRUTOK",2005-03-01,2015-08-10,"Židlochovice",49.0361099243164,16.6180553436279,"Average","Field Observation","Water","hour",1
"208","HYDRODATACZ-HR","http://hydrodata.info/chmi-h/cuahsi_1_1.asmx?wsdl","CHMI-H:98","CHMI-H:PRUTOK",2005-03-09,2015-08-10,"Moravicany",49.7558326721191,16.9775009155273,"Average","Field Observation","Water","hour",1
"209","HYDRODATACZ-HR","http://hydrodata.info/chmi-h/cuahsi_1_1.asmx?wsdl","CHMI-H:515","CHMI-H:PRUTOK",2006-08-10,2015-08-10,"VD Vír",49.5427780151367,16.3391666412354,"Average","Field Observation","Water","hour",1
"210","HYDRODATACZ-HR","http://hydrodata.info/chmi-h/cuahsi_1_1.asmx?wsdl","CHMI-H:518","CHMI-H:PRUTOK",2006-08-09,2015-08-10,"Letovice",49.5302772521973,16.5827770233154,"Average","Field Observation","Water","hour",1
"211","HYDRODATACZ-HR","http://hydrodata.info/chmi-h/cuahsi_1_1.asmx?wsdl","CHMI-H:519","CHMI-H:PRUTOK",2006-08-09,2015-08-10,"Ladná",48.804443359375,16.8552780151367,"Average","Field Observation","Water","hour",1
"212","HYDRODATACZ-HR","http://hydrodata.info/chmi-h/cuahsi_1_1.asmx?wsdl","CHMI-H:520","CHMI-H:PRUTOK",2006-08-09,2015-08-10,"Lanžhot",48.6875,16.9905548095703,"Average","Field Observation","Water","hour",1
"213","HYDRODATACZ-HR","http://hydrodata.info/chmi-h/cuahsi_1_1.asmx?wsdl","CHMI-H:521","CHMI-H:PRUTOK",2006-08-04,2015-08-10,"Vizovice",49.2230567932129,17.8438892364502,"Average","Field Observation","Water","hour",1
"214","HYDRODATACZ-HR","http://hydrodata.info/chmi-h/cuahsi_1_1.asmx?wsdl","CHMI-H:523","CHMI-H:PRUTOK",2006-08-09,2015-08-10,"Jarcová",49.4449996948242,17.97194480896,"Average","Field Observation","Water","hour",1
"215","HYDRODATACZ-HR","http://hydrodata.info/chmi-h/cuahsi_1_1.asmx?wsdl","CHMI-H:504","CHMI-H:PRUTOK",2006-08-09,2015-08-10,"VD Znojmo",48.8544425964355,16.0444450378418,"Average","Field Observation","Water","hour",1
"216","HYDRODATACZ-HR","http://hydrodata.info/chmi-h/cuahsi_1_1.asmx?wsdl","CHMI-H:508","CHMI-H:PRUTOK",2006-08-09,2015-08-10,"Moravský Krumlov",49.0516662597656,16.3077774047852,"Average","Field Observation","Water","hour",1
"217","HYDRODATACZ-HR","http://hydrodata.info/chmi-h/cuahsi_1_1.asmx?wsdl","CHMI-H:509","CHMI-H:PRUTOK",2006-08-09,2015-08-10,"VD Mohelno",49.1033325195312,16.1849994659424,"Average","Field Observation","Water","hour",1
"218","HYDRODATACZ-HR","http://hydrodata.info/chmi-h/cuahsi_1_1.asmx?wsdl","CHMI-H:510","CHMI-H:PRUTOK",2006-08-07,2015-08-10,"Dvorce",49.3824996948242,15.5041666030884,"Average","Field Observation","Water","hour",1
"219","HYDRODATACZ-HR","http://hydrodata.info/chmi-h/cuahsi_1_1.asmx?wsdl","CHMI-H:512","CHMI-H:PRUTOK",2006-08-09,2015-08-10,"Baliny",49.339168548584,15.9624996185303,"Average","Field Observation","Water","hour",1
"220","HYDRODATACZ-HR","http://hydrodata.info/chmi-h/cuahsi_1_1.asmx?wsdl","CHMI-H:514","CHMI-H:PRUTOK",2006-08-09,2015-08-10,"Brno - Porící",49.1863899230957,16.5938892364502,"Average","Field Observation","Water","hour",1
"221","HYDRODATACZ-HR","http://hydrodata.info/chmi-h/cuahsi_1_1.asmx?wsdl","CHMI-H:205","CHMI-H:PRUTOK",2005-02-23,2015-08-10,"Dluhonice",49.4494438171387,17.4113883972168,"Average","Field Observation","Water","hour",1
"222","HYDRODATACZ-HR","http://hydrodata.info/chmi-h/cuahsi_1_1.asmx?wsdl","CHMI-H:211","CHMI-H:PRUTOK",2007-03-29,2015-08-10,"Veverská Bítýška",49.2780570983887,16.4438896179199,"Average","Field Observation","Water","hour",1
"223","HYDRODATACZ-HR","http://hydrodata.info/chmi-h/cuahsi_1_1.asmx?wsdl","CHMI-H:214","CHMI-H:PRUTOK",2005-02-22,2015-08-10,"Trebíc - Ptácov",49.2111129760742,15.8555555343628,"Average","Field Observation","Water","hour",1
"224","HYDRODATACZ-HR","http://hydrodata.info/chmi-h/cuahsi_1_1.asmx?wsdl","CHMI-H:216","CHMI-H:PRUTOK",2005-06-28,2015-08-10,"Vlaské",50.0886116027832,16.9036102294922,"Average","Field Observation","Water","hour",1
"225","HYDRODATACZ-HR","http://hydrodata.info/chmi-h/cuahsi_1_1.asmx?wsdl","CHMI-H:501","CHMI-H:PRUTOK",2006-08-03,2015-08-10,"Šumperk",49.9580574035645,16.9716663360596,"Average","Field Observation","Water","hour",1
"226","HYDRODATACZ-HR","http://hydrodata.info/chmi-h/cuahsi_1_1.asmx?wsdl","CHMI-H:503","CHMI-H:PRUTOK",2006-08-05,2015-08-10,"Jemnice",49.0172233581543,15.5805559158325,"Average","Field Observation","Water","hour",1
"227","HYDRODATACZ-HR","http://hydrodata.info/chmi-h/cuahsi_1_1.asmx?wsdl","CHMI-H:178","CHMI-H:PRUTOK",2005-01-23,2015-08-10,"Oslavany",49.1166648864746,16.3455562591553,"Average","Field Observation","Water","hour",1
"228","HYDRODATACZ-HR","http://hydrodata.info/chmi-h/cuahsi_1_1.asmx?wsdl","CHMI-H:182","CHMI-H:PRUTOK",2005-02-27,2015-08-10,"Ivancice",49.083610534668,16.4127769470215,"Average","Field Observation","Water","hour",1
"229","HYDRODATACZ-HR","http://hydrodata.info/chmi-h/cuahsi_1_1.asmx?wsdl","CHMI-H:191","CHMI-H:PRUTOK",2005-03-09,2015-08-10,"Podhradí nad Dyjí",48.9036102294922,15.6902780532837,"Average","Field Observation","Water","hour",1
"230","HYDRODATACZ-HR","http://hydrodata.info/chmi-h/cuahsi_1_1.asmx?wsdl","CHMI-H:192","CHMI-H:PRUTOK",2005-02-19,2015-08-10,"Dalecín",49.5952796936035,16.2466678619385,"Average","Field Observation","Water","hour",1
"231","HYDRODATACZ-HR","http://hydrodata.info/chmi-h/cuahsi_1_1.asmx?wsdl","CHMI-H:193","CHMI-H:PRUTOK",2005-02-19,2015-08-10,"Janov",48.9933319091797,15.4366664886475,"Average","Field Observation","Water","hour",1
"232","HYDRODATACZ-HR","http://hydrodata.info/chmi-h/cuahsi_1_1.asmx?wsdl","CHMI-H:194","CHMI-H:PRUTOK",2005-03-08,2015-08-10,"Olomouc - Nové Sady",49.5774993896484,17.2627773284912,"Average","Field Observation","Water","hour",1
"233","HYDRODATACZ-HR","http://hydrodata.info/chmi-h/cuahsi_1_1.asmx?wsdl","CHMI-H:100","CHMI-H:PRUTOK",2005-06-08,2015-08-10,"Teplice nad Becvou",49.5305557250977,17.7477779388428,"Average","Field Observation","Water","hour",1
"234","HYDRODATACZ-HR","http://hydrodata.info/chmi-h/cuahsi_1_1.asmx?wsdl","CHMI-H:105","CHMI-H:PRUTOK",2005-02-09,2015-08-10,"Valašské Mezirící",49.4638900756836,17.9750003814697,"Average","Field Observation","Water","hour",1
"235","HYDRODATACZ-HR","http://hydrodata.info/chmi-h/cuahsi_1_1.asmx?wsdl","CHMI-H:113","CHMI-H:PRUTOK",2005-02-23,2015-08-10,"Raškov",50.0411109924316,16.9127769470215,"Average","Field Observation","Water","hour",1
"236","HYDRODATACZ-HR","http://hydrodata.info/chmi-h/cuahsi_1_1.asmx?wsdl","CHMI-H:115","CHMI-H:PRUTOK",2005-01-23,2015-08-10,"Spytihnev",49.1322212219238,17.5030555725098,"Average","Field Observation","Water","hour",1
"237","HYDRODATACZ-HR","http://hydrodata.info/chmi-h/cuahsi_1_1.asmx?wsdl","CHMI-H:120","CHMI-H:PRUTOK",2005-02-24,2015-08-10,"Kromeríž",49.2997207641602,17.3780555725098,"Average","Field Observation","Water","hour",1
"262","HYDRODATACZ-HR","http://hydrodata.info/chmi-h/cuahsi_1_1.asmx?wsdl","CHMI-H:186","CHMI-H:PRUTOK",2005-02-14,2015-08-10,"Liberec",50.7677764892578,15.0524997711182,"Average","Field Observation","Water","hour",1
"338","HYDRODATACZ-HR","http://hydrodata.info/chmi-h/cuahsi_1_1.asmx?wsdl","CHMI-H:134","CHMI-H:PRUTOK",2005-02-24,2015-08-10,"Lupené",49.8672218322754,16.8402786254883,"Average","Field Observation","Water","hour",1
"339","HYDRODATACZ-HR","http://hydrodata.info/chmi-h/cuahsi_1_1.asmx?wsdl","CHMI-H:135","CHMI-H:PRUTOK",2005-01-23,2015-08-10,"Zlín",49.2308349609375,17.6741676330566,"Average","Field Observation","Water","hour",1
"340","HYDRODATACZ-HR","http://hydrodata.info/chmi-h/cuahsi_1_1.asmx?wsdl","CHMI-H:148","CHMI-H:PRUTOK",2005-03-08,2015-01-11,"Cheb - VD Skalka",50.0861129760742,12.3866662979126,"Average","Field Observation","Water","hour",1
"341","HYDRODATACZ-HR","http://hydrodata.info/chmi-h/cuahsi_1_1.asmx?wsdl","CHMI-H:150","CHMI-H:PRUTOK",2005-02-18,2015-08-10,"Bílovice nad Svitavou",48.9502792358398,17.463888168335,"Average","Field Observation","Water","hour",1
"342","HYDRODATACZ-HR","http://hydrodata.info/chmi-h/cuahsi_1_1.asmx?wsdl","CHMI-H:157","CHMI-H:PRUTOK",2005-01-24,2015-01-09,"VD Nové Mlýny",48.8574981689453,16.7275009155273,"Average","Field Observation","Water","hour",1
"343","HYDRODATACZ-HR","http://hydrodata.info/chmi-h/cuahsi_1_1.asmx?wsdl","CHMI-H:172","CHMI-H:PRUTOK",2005-01-23,2015-08-10,"Strážnice",48.8991661071777,17.3380546569824,"Average","Field Observation","Water","hour",1
"423","HYDRODATACZ-HR","http://hydrodata.info/chmi-h/cuahsi_1_1.asmx?wsdl","CHMI-H:448","CHMI-H:PRUTOK",2006-07-28,2015-08-10,"Nová Ves",48.8081970214844,14.9388751983643,"Average","Field Observation","Water","hour",1
"424","HYDRODATACZ-HR","http://hydrodata.info/chmi-h/cuahsi_1_1.asmx?wsdl","CHMI-H:453","CHMI-H:PRUTOK",2006-07-28,2015-08-10,"Cervená Recice",49.5276718139648,15.1748456954956,"Average","Field Observation","Water","hour",1
"425","HYDRODATACZ-HR","http://hydrodata.info/chmi-h/cuahsi_1_1.asmx?wsdl","CHMI-H:454","CHMI-H:PRUTOK",2006-07-28,2015-08-10,"Milotice",49.5001945495605,15.2792263031006,"Average","Field Observation","Water","hour",1
"426","HYDRODATACZ-HR","http://hydrodata.info/chmi-h/cuahsi_1_1.asmx?wsdl","CHMI-H:459","CHMI-H:PRUTOK",2006-07-27,2015-08-10,"Radonice",49.7889175415039,14.9327869415283,"Average","Field Observation","Water","hour",1
"427","HYDRODATACZ-HR","http://hydrodata.info/chmi-h/cuahsi_1_1.asmx?wsdl","CHMI-H:436","CHMI-H:PRUTOK",2006-07-28,2015-08-10,"Bavorov",49.1236114501953,14.0827779769897,"Average","Field Observation","Water","hour",1
"428","HYDRODATACZ-HR","http://hydrodata.info/chmi-h/cuahsi_1_1.asmx?wsdl","CHMI-H:461","CHMI-H:PRUTOK",2006-08-03,2014-12-28,"Predlánce",50.9711112976074,15.0355558395386,"Average","Field Observation","Water","hour",1
"429","HYDRODATACZ-HR","http://hydrodata.info/chmi-h/cuahsi_1_1.asmx?wsdl","CHMI-H:462","CHMI-H:PRUTOK",2006-08-04,2014-12-28,"Dolní Štepanice",50.6375007629395,15.5194444656372,"Average","Field Observation","Water","hour",1
"430","HYDRODATACZ-HR","http://hydrodata.info/chmi-h/cuahsi_1_1.asmx?wsdl","CHMI-H:463","CHMI-H:PRUTOK",2006-08-08,2015-08-10,"Plavy",50.7033729553223,15.3215847015381,"Average","Field Observation","Water","hour",1
"431","HYDRODATACZ-HR","http://hydrodata.info/chmi-h/cuahsi_1_1.asmx?wsdl","CHMI-H:464","CHMI-H:PRUTOK",2006-08-08,2015-08-10,"VD Souš",50.789722442627,15.3172225952148,"Average","Field Observation","Water","hour",1
"432","HYDRODATACZ-HR","http://hydrodata.info/chmi-h/cuahsi_1_1.asmx?wsdl","CHMI-H:465","CHMI-H:PRUTOK",2006-08-06,2014-12-28,"Dolní Sytová",50.625,15.4425001144409,"Average","Field Observation","Water","hour",1
"433","HYDRODATACZ-HR","http://hydrodata.info/chmi-h/cuahsi_1_1.asmx?wsdl","CHMI-H:466","CHMI-H:PRUTOK",2006-08-06,2015-08-10,"LG Mníšek",50.8323593139648,15.0520296096802,"Average","Field Observation","Water","hour",1
"434","HYDRODATACZ-HR","http://hydrodata.info/chmi-h/cuahsi_1_1.asmx?wsdl","CHMI-H:467","CHMI-H:PRUTOK",2006-08-05,2015-08-10,"Rohoznice",50.3897972106934,15.698917388916,"Average","Field Observation","Water","hour",1
"435","HYDRODATACZ-HR","http://hydrodata.info/chmi-h/cuahsi_1_1.asmx?wsdl","CHMI-H:468","CHMI-H:PRUTOK",2006-08-08,2014-12-28,"Bílek",49.7044448852539,15.7319440841675,"Average","Field Observation","Water","hour",1
"436","HYDRODATACZ-HR","http://hydrodata.info/chmi-h/cuahsi_1_1.asmx?wsdl","CHMI-H:469","CHMI-H:PRUTOK",2006-08-08,2014-12-26,"Svídnice",49.8819427490234,15.8125,"Average","Field Observation","Water","hour",1
"437","HYDRODATACZ-HR","http://hydrodata.info/chmi-h/cuahsi_1_1.asmx?wsdl","CHMI-H:470","CHMI-H:PRUTOK",2006-08-08,2015-08-10,"Premilov",49.8042449951172,15.695161819458,"Average","Field Observation","Water","hour",1
"438","HYDRODATACZ-HR","http://hydrodata.info/chmi-h/cuahsi_1_1.asmx?wsdl","CHMI-H:471","CHMI-H:PRUTOK",2006-08-08,2015-08-10,"VD Hamry",49.7383346557617,15.9144439697266,"Average","Field Observation","Water","hour",1
"439","HYDRODATACZ-HR","http://hydrodata.info/chmi-h/cuahsi_1_1.asmx?wsdl","CHMI-H:472","CHMI-H:PRUTOK",2006-08-05,2015-08-10,"Litomyšl",49.873462677002,16.3074741363525,"Average","Field Observation","Water","hour",1
"440","HYDRODATACZ-HR","http://hydrodata.info/chmi-h/cuahsi_1_1.asmx?wsdl","CHMI-H:473","CHMI-H:PRUTOK",2006-08-08,2015-08-10,"LG Brod",50.3878707885742,15.9091281890869,"Average","Field Observation","Water","hour",1
"441","HYDRODATACZ-HR","http://hydrodata.info/chmi-h/cuahsi_1_1.asmx?wsdl","CHMI-H:474","CHMI-H:PRUTOK",2006-08-08,2014-12-28,"VD Les Království",50.4550018310547,15.7736110687256,"Average","Field Observation","Water","hour",1
"442","HYDRODATACZ-HR","http://hydrodata.info/chmi-h/cuahsi_1_1.asmx?wsdl","CHMI-H:475","CHMI-H:PRUTOK",2006-08-08,2015-08-10,"Horní Lánov",50.6363906860352,15.6611099243164,"Average","Field Observation","Water","hour",1
"443","HYDRODATACZ-HR","http://hydrodata.info/chmi-h/cuahsi_1_1.asmx?wsdl","CHMI-H:476","CHMI-H:PRUTOK",2006-08-06,2014-12-28,"VD Labská",50.7111129760742,15.5866670608521,"Average","Field Observation","Water","hour",1
"444","HYDRODATACZ-HR","http://hydrodata.info/chmi-h/cuahsi_1_1.asmx?wsdl","CHMI-H:477","CHMI-H:PRUTOK",2006-08-06,2015-08-10,"Špindleruv Mlýn",50.7238883972168,15.6033334732056,"Average","Field Observation","Water","hour",1
"445","HYDRODATACZ-HR","http://hydrodata.info/chmi-h/cuahsi_1_1.asmx?wsdl","CHMI-H:478","CHMI-H:PRUTOK",2006-08-06,2014-12-28,"Hronov",50.4836120605469,16.1827774047852,"Average","Field Observation","Water","hour",1
"446","HYDRODATACZ-HR","http://hydrodata.info/chmi-h/cuahsi_1_1.asmx?wsdl","CHMI-H:479","CHMI-H:PRUTOK",2006-08-05,2015-08-10,"Rychnov nad Knežnou",50.1725006103516,16.2683334350586,"Average","Field Observation","Water","hour",1
"447","HYDRODATACZ-HR","http://hydrodata.info/chmi-h/cuahsi_1_1.asmx?wsdl","CHMI-H:480","CHMI-H:PRUTOK",2006-08-06,2015-08-10,"Jedlová",50.2916679382324,16.3452777862549,"Average","Field Observation","Water","hour",1
"448","HYDRODATACZ-HR","http://hydrodata.info/chmi-h/cuahsi_1_1.asmx?wsdl","CHMI-H:481","CHMI-H:PRUTOK",2006-08-08,2014-12-28,"Nekor",50.0658340454102,16.5441665649414,"Average","Field Observation","Water","hour",1
"449","HYDRODATACZ-HR","http://hydrodata.info/chmi-h/cuahsi_1_1.asmx?wsdl","CHMI-H:482","CHMI-H:PRUTOK",2006-08-05,2014-12-28,"Orlické Záhorí",50.3113899230957,16.4280548095703,"Average","Field Observation","Water","hour",1
"450","HYDRODATACZ-HR","http://hydrodata.info/chmi-h/cuahsi_1_1.asmx?wsdl","CHMI-H:483","CHMI-H:PRUTOK",2006-08-06,2015-08-10,"Lichkov",50.0970497131348,16.6757621765137,"Average","Field Observation","Water","hour",1
"451","HYDRODATACZ-HR","http://hydrodata.info/chmi-h/cuahsi_1_1.asmx?wsdl","CHMI-H:484","CHMI-H:PRUTOK",2006-08-04,2015-08-10,"Trebovice",49.8576889038086,16.5031585693359,"Average","Field Observation","Water","hour",1
"452","HYDRODATACZ-HR","http://hydrodata.info/chmi-h/cuahsi_1_1.asmx?wsdl","CHMI-H:485","CHMI-H:PRUTOK",2006-08-04,2015-08-10,"VD Jesenice",50.0851020812988,12.4793262481689,"Average","Field Observation","Water","hour",1
"453","HYDRODATACZ-HR","http://hydrodata.info/chmi-h/cuahsi_1_1.asmx?wsdl","CHMI-H:488","CHMI-H:PRUTOK",2006-08-04,2014-12-28,"Teplicka",50.1533317565918,12.8488893508911,"Average","Field Observation","Water","hour",1
"454","HYDRODATACZ-HR","http://hydrodata.info/chmi-h/cuahsi_1_1.asmx?wsdl","CHMI-H:504","CHMI-H:PRUTOK",2006-08-09,2015-01-10,"VD Znojmo",48.8544425964355,16.0444450378418,"Average","Field Observation","Water","hour",1
"455","HYDRODATACZ-HR","http://hydrodata.info/chmi-h/cuahsi_1_1.asmx?wsdl","CHMI-H:505","CHMI-H:PRUTOK",2006-08-09,2015-08-10,"Hevlín",48.7438011169434,16.3809242248535,"Average","Field Observation","Water","hour",1
"456","HYDRODATACZ-HR","http://hydrodata.info/chmi-h/cuahsi_1_1.asmx?wsdl","CHMI-H:506","CHMI-H:PRUTOK",2006-08-05,2015-08-10,"Hrušovany nad Jevišovkou",48.8244552612305,16.4070091247559,"Average","Field Observation","Water","hour",1
"457","HYDRODATACZ-HR","http://hydrodata.info/chmi-h/cuahsi_1_1.asmx?wsdl","CHMI-H:507","CHMI-H:PRUTOK",2006-08-09,2015-08-10,"Pribice",48.9650688171387,16.5591773986816,"Average","Field Observation","Water","hour",1
"458","HYDRODATACZ-HR","http://hydrodata.info/chmi-h/cuahsi_1_1.asmx?wsdl","CHMI-H:508","CHMI-H:PRUTOK",2006-08-09,2015-01-03,"Moravský Krumlov",49.0516662597656,16.3077774047852,"Average","Field Observation","Water","hour",1
"459","HYDRODATACZ-HR","http://hydrodata.info/chmi-h/cuahsi_1_1.asmx?wsdl","CHMI-H:509","CHMI-H:PRUTOK",2006-08-09,2015-01-10,"VD Mohelno",49.1033325195312,16.1849994659424,"Average","Field Observation","Water","hour",1
"460","HYDRODATACZ-HR","http://hydrodata.info/chmi-h/cuahsi_1_1.asmx?wsdl","CHMI-H:510","CHMI-H:PRUTOK",2006-08-07,2015-01-03,"Dvorce",49.3824996948242,15.5041666030884,"Average","Field Observation","Water","hour",1
"461","HYDRODATACZ-HR","http://hydrodata.info/chmi-h/cuahsi_1_1.asmx?wsdl","CHMI-H:511","CHMI-H:PRUTOK",2006-08-09,2015-08-10,"Velké Mezirící",49.353889465332,16.0086116790771,"Average","Field Observation","Water","hour",1
"462","HYDRODATACZ-HR","http://hydrodata.info/chmi-h/cuahsi_1_1.asmx?wsdl","CHMI-H:512","CHMI-H:PRUTOK",2006-08-09,2015-01-10,"Baliny",49.339168548584,15.9624996185303,"Average","Field Observation","Water","hour",1
"463","HYDRODATACZ-HR","http://hydrodata.info/chmi-h/cuahsi_1_1.asmx?wsdl","CHMI-H:513","CHMI-H:PRUTOK",2006-08-09,2015-08-10,"VD Mostište",49.3946495056152,16.0149078369141,"Average","Field Observation","Water","hour",1
"464","HYDRODATACZ-HR","http://hydrodata.info/chmi-h/cuahsi_1_1.asmx?wsdl","CHMI-H:514","CHMI-H:PRUTOK",2006-08-09,2015-01-03,"Brno - Porící",49.1863899230957,16.5938892364502,"Average","Field Observation","Water","hour",1
"465","HYDRODATACZ-HR","http://hydrodata.info/chmi-h/cuahsi_1_1.asmx?wsdl","CHMI-H:515","CHMI-H:PRUTOK",2006-08-10,2015-01-03,"VD Vír",49.5427780151367,16.3391666412354,"Average","Field Observation","Water","hour",1
"466","HYDRODATACZ-HR","http://hydrodata.info/chmi-h/cuahsi_1_1.asmx?wsdl","CHMI-H:516","CHMI-H:PRUTOK",2006-08-05,2015-08-10,"Borovnice",49.6710090637207,16.2016220092773,"Average","Field Observation","Water","hour",1
"467","HYDRODATACZ-HR","http://hydrodata.info/chmi-h/cuahsi_1_1.asmx?wsdl","CHMI-H:517","CHMI-H:PRUTOK",2006-08-05,2015-08-10,"Jimramov",49.6366157531738,16.2166481018066,"Average","Field Observation","Water","hour",1
"468","HYDRODATACZ-HR","http://hydrodata.info/chmi-h/cuahsi_1_1.asmx?wsdl","CHMI-H:586","CHMI-H:PRUTOK",2007-06-22,2015-08-10,"Unicov",49.7713890075684,17.1316661834717,"Average","Field Observation","Water","hour",1
"469","HYDRODATACZ-HR","http://hydrodata.info/chmi-h/cuahsi_1_1.asmx?wsdl","CHMI-H:587","CHMI-H:PRUTOK",2007-06-22,2014-11-24,"Mikulovice",50.2908325195312,17.2958335876465,"Average","Field Observation","Water","hour",1
"470","HYDRODATACZ-HR","http://hydrodata.info/chmi-h/cuahsi_1_1.asmx?wsdl","CHMI-H:588","CHMI-H:PRUTOK",2007-06-22,2014-11-26,"Osoblaha",50.283332824707,17.716667175293,"Average","Field Observation","Water","hour",1
"471","HYDRODATACZ-HR","http://hydrodata.info/chmi-h/cuahsi_1_1.asmx?wsdl","CHMI-H:589","CHMI-H:PRUTOK",2007-06-17,2015-08-02,"Ratibor",50.1068801879883,13.1014680862427,"Average","Field Observation","Water","hour",1
"472","HYDRODATACZ-HR","http://hydrodata.info/chmi-h/cuahsi_1_1.asmx?wsdl","CHMI-H:590","CHMI-H:PRUTOK",2007-06-17,2015-08-10,"Obora",49.8166122436523,12.5553722381592,"Average","Field Observation","Water","hour",1
"473","HYDRODATACZ-HR","http://hydrodata.info/chmi-h/cuahsi_1_1.asmx?wsdl","CHMI-H:591","CHMI-H:PRUTOK",2007-06-17,2015-08-10,"Hamry",49.240966796875,13.1548128128052,"Average","Field Observation","Water","hour",1
"474","HYDRODATACZ-HR","http://hydrodata.info/chmi-h/cuahsi_1_1.asmx?wsdl","CHMI-H:592","CHMI-H:PRUTOK",2007-06-17,2015-08-10,"Hamry",49.2382392883301,13.1574144363403,"Average","Field Observation","Water","hour",1
"475","HYDRODATACZ-HR","http://hydrodata.info/chmi-h/cuahsi_1_1.asmx?wsdl","CHMI-H:594","CHMI-H:PRUTOK",2007-07-09,2015-08-10,"Blažejovice",49.6129989624023,15.205286026001,"Average","Field Observation","Water","hour",1
"476","HYDRODATACZ-HR","http://hydrodata.info/chmi-h/cuahsi_1_1.asmx?wsdl","CHMI-H:595","CHMI-H:PRUTOK",2007-06-17,2014-12-28,"Chocnejovice",50.575553894043,14.9650001525879,"Average","Field Observation","Water","hour",1
"477","HYDRODATACZ-HR","http://hydrodata.info/chmi-h/cuahsi_1_1.asmx?wsdl","CHMI-H:596","CHMI-H:PRUTOK",2007-06-17,2015-07-10,"Slaná",50.5854949951172,15.3491172790527,"Average","Field Observation","Water","hour",1
"478","HYDRODATACZ-HR","http://hydrodata.info/chmi-h/cuahsi_1_1.asmx?wsdl","CHMI-H:597","CHMI-H:PRUTOK",2007-07-04,2015-08-10,"Uhlírská",50.8330574035645,15.1511106491089,"Average","Field Observation","Water","hour",1
"479","HYDRODATACZ-HR","http://hydrodata.info/chmi-h/cuahsi_1_1.asmx?wsdl","CHMI-H:598","CHMI-H:PRUTOK",2007-06-17,2015-08-10,"Harrachov",50.7688903808594,15.4347219467163,"Average","Field Observation","Water","hour",1
"480","HYDRODATACZ-HR","http://hydrodata.info/chmi-h/cuahsi_1_1.asmx?wsdl","CHMI-H:599","CHMI-H:PRUTOK",2007-06-17,2015-08-10,"Prosecné",50.5581588745117,15.6897287368774,"Average","Field Observation","Water","hour",1
"481","HYDRODATACZ-HR","http://hydrodata.info/chmi-h/cuahsi_1_1.asmx?wsdl","CHMI-H:518","CHMI-H:PRUTOK",2006-08-09,2015-01-03,"Letovice",49.5302772521973,16.5827770233154,"Average","Field Observation","Water","hour",1
"482","HYDRODATACZ-HR","http://hydrodata.info/chmi-h/cuahsi_1_1.asmx?wsdl","CHMI-H:519","CHMI-H:PRUTOK",2006-08-09,2015-01-10,"Ladná",48.804443359375,16.8552780151367,"Average","Field Observation","Water","hour",1
"483","HYDRODATACZ-HR","http://hydrodata.info/chmi-h/cuahsi_1_1.asmx?wsdl","CHMI-H:520","CHMI-H:PRUTOK",2006-08-09,2015-01-10,"Lanžhot",48.6875,16.9905548095703,"Average","Field Observation","Water","hour",1
"484","HYDRODATACZ-HR","http://hydrodata.info/chmi-h/cuahsi_1_1.asmx?wsdl","CHMI-H:521","CHMI-H:PRUTOK",2006-08-04,2015-01-10,"Vizovice",49.2230567932129,17.8438892364502,"Average","Field Observation","Water","hour",1
"485","HYDRODATACZ-HR","http://hydrodata.info/chmi-h/cuahsi_1_1.asmx?wsdl","CHMI-H:522","CHMI-H:PRUTOK",2006-09-03,2013-11-19,"VD Slušovice",49.2687568664551,17.8053493499756,"Average","Field Observation","Water","hour",1
"486","HYDRODATACZ-HR","http://hydrodata.info/chmi-h/cuahsi_1_1.asmx?wsdl","CHMI-H:523","CHMI-H:PRUTOK",2006-08-09,2015-01-03,"Jarcová",49.4449996948242,17.97194480896,"Average","Field Observation","Water","hour",1
"487","HYDRODATACZ-HR","http://hydrodata.info/chmi-h/cuahsi_1_1.asmx?wsdl","CHMI-H:524","CHMI-H:PRUTOK",2007-02-09,2015-08-10,"Vedlice",50.5260353088379,14.3440065383911,"Average","Field Observation","Water","hour",1
"488","HYDRODATACZ-HR","http://hydrodata.info/chmi-h/cuahsi_1_1.asmx?wsdl","CHMI-H:525","CHMI-H:PRUTOK",2007-02-09,2015-08-10,"Kristiánov",50.8091659545898,15.1841669082642,"Average","Field Observation","Water","hour",1
"489","HYDRODATACZ-HR","http://hydrodata.info/chmi-h/cuahsi_1_1.asmx?wsdl","CHMI-H:526","CHMI-H:PRUTOK",2007-02-12,2015-08-10,"Jezdecká",50.8074989318848,15.2930555343628,"Average","Field Observation","Water","hour",1
"490","HYDRODATACZ-HR","http://hydrodata.info/chmi-h/cuahsi_1_1.asmx?wsdl","CHMI-H:556","CHMI-H:PRUTOK",2007-05-21,2015-08-10,"Sovolusky",50.0945129394531,13.0716991424561,"Average","Field Observation","Water","hour",1
"491","HYDRODATACZ-HR","http://hydrodata.info/chmi-h/cuahsi_1_1.asmx?wsdl","CHMI-H:557","CHMI-H:PRUTOK",2007-05-21,2015-08-10,"Mýto",49.7997207641602,12.5717334747314,"Average","Field Observation","Water","hour",1
"492","HYDRODATACZ-HR","http://hydrodata.info/chmi-h/cuahsi_1_1.asmx?wsdl","CHMI-H:558","CHMI-H:PRUTOK",2007-06-21,2015-08-10,"Lány-Mestecko",50.082893371582,13.9023666381836,"Average","Field Observation","Water","hour",1
"493","HYDRODATACZ-HR","http://hydrodata.info/chmi-h/cuahsi_1_1.asmx?wsdl","CHMI-H:559","CHMI-H:PRUTOK",2007-06-21,2015-08-10,"Lány-Belec",50.0777015686035,13.9400539398193,"Average","Field Observation","Water","hour",1
"494","HYDRODATACZ-HR","http://hydrodata.info/chmi-h/cuahsi_1_1.asmx?wsdl","CHMI-H:560","CHMI-H:PRUTOK",2007-11-11,2015-08-10,"Príbram",49.6848258972168,13.9847211837769,"Average","Field Observation","Water","hour",1
"495","HYDRODATACZ-HR","http://hydrodata.info/chmi-h/cuahsi_1_1.asmx?wsdl","CHMI-H:562","CHMI-H:PRUTOK",2007-05-21,2015-08-10,"Bohumilice",49.0995101928711,13.8027276992798,"Average","Field Observation","Water","hour",1
"496","HYDRODATACZ-HR","http://hydrodata.info/chmi-h/cuahsi_1_1.asmx?wsdl","CHMI-H:564","CHMI-H:PRUTOK",2007-05-21,2015-08-10,"Hrachov",49.6619338989258,14.3019351959229,"Average","Field Observation","Water","hour",1
"497","HYDRODATACZ-HR","http://hydrodata.info/chmi-h/cuahsi_1_1.asmx?wsdl","CHMI-H:565","CHMI-H:PRUTOK",2007-05-21,2015-08-10,"Leský mlýn",49.6613235473633,15.087516784668,"Average","Field Observation","Water","hour",1
"498","HYDRODATACZ-HR","http://hydrodata.info/chmi-h/cuahsi_1_1.asmx?wsdl","CHMI-H:566","CHMI-H:PRUTOK",2007-05-21,2015-08-10,"Senožaty",49.5815353393555,15.2060670852661,"Average","Field Observation","Water","hour",1
"499","HYDRODATACZ-HR","http://hydrodata.info/chmi-h/cuahsi_1_1.asmx?wsdl","CHMI-H:567","CHMI-H:PRUTOK",2007-05-21,2015-08-10,"Radetín",49.4502716064453,15.23157787323,"Average","Field Observation","Water","hour",1
"500","HYDRODATACZ-HR","http://hydrodata.info/chmi-h/cuahsi_1_1.asmx?wsdl","CHMI-H:569","CHMI-H:PRUTOK",2007-05-25,2015-08-10,"Malešov",49.9094200134277,15.2242851257324,"Average","Field Observation","Water","hour",1
"501","HYDRODATACZ-HR","http://hydrodata.info/chmi-h/cuahsi_1_1.asmx?wsdl","CHMI-H:585","CHMI-H:PRUTOK",2007-06-22,2014-12-28,"Planany",50.049446105957,15.0177774429321,"Average","Field Observation","Water","hour",1
"502","HYDRODATACZ-HR","http://hydrodata.info/chmi-h/cuahsi_1_1.asmx?wsdl","CHMI-H:600","CHMI-H:PRUTOK",2007-06-17,2015-08-10,"Hostinné",50.5356178283691,15.7352104187012,"Average","Field Observation","Water","hour",1
"503","HYDRODATACZ-HR","http://hydrodata.info/chmi-h/cuahsi_1_1.asmx?wsdl","CHMI-H:601","CHMI-H:PRUTOK",2007-06-17,2015-08-10,"Hostinné",50.5416984558105,15.7262001037598,"Average","Field Observation","Water","hour",1
"504","HYDRODATACZ-HR","http://hydrodata.info/chmi-h/cuahsi_1_1.asmx?wsdl","CHMI-H:602","CHMI-H:PRUTOK",2007-06-17,2015-08-10,"Dolní Olešnice",50.5175018310547,15.7304000854492,"Average","Field Observation","Water","hour",1
"505","HYDRODATACZ-HR","http://hydrodata.info/chmi-h/cuahsi_1_1.asmx?wsdl","CHMI-H:603","CHMI-H:PRUTOK",2007-06-17,2015-08-10,"Chotevice",50.5194282531738,15.7601499557495,"Average","Field Observation","Water","hour",1
"506","HYDRODATACZ-HR","http://hydrodata.info/chmi-h/cuahsi_1_1.asmx?wsdl","CHMI-H:604","CHMI-H:PRUTOK",2007-06-17,2015-08-10,"Svídnice",50.2666282653809,15.1798229217529,"Average","Field Observation","Water","hour",1
"507","HYDRODATACZ-HR","http://hydrodata.info/chmi-h/cuahsi_1_1.asmx?wsdl","CHMI-H:605","CHMI-H:PRUTOK",2007-06-17,2014-12-28,"Horní Staré Mesto",50.5950012207031,15.8774995803833,"Average","Field Observation","Water","hour",1
"508","HYDRODATACZ-HR","http://hydrodata.info/chmi-h/cuahsi_1_1.asmx?wsdl","CHMI-H:606","CHMI-H:PRUTOK",2007-06-17,2015-08-10,"Slatina nad Úpou",50.4491996765137,16.0517997741699,"Average","Field Observation","Water","hour",1
"509","HYDRODATACZ-HR","http://hydrodata.info/chmi-h/cuahsi_1_1.asmx?wsdl","CHMI-H:607","CHMI-H:PRUTOK",2007-06-17,2015-08-10,"Velký Drevíc",50.4913711547852,16.1832523345947,"Average","Field Observation","Water","hour",1
"510","HYDRODATACZ-HR","http://hydrodata.info/chmi-h/cuahsi_1_1.asmx?wsdl","CHMI-H:608","CHMI-H:PRUTOK",2007-06-17,2015-08-10,"Castolovice",50.1286811828613,16.1846981048584,"Average","Field Observation","Water","hour",1
"511","HYDRODATACZ-HR","http://hydrodata.info/chmi-h/cuahsi_1_1.asmx?wsdl","CHMI-H:609","CHMI-H:PRUTOK",2007-06-17,2015-08-10,"Žamberk",50.0816650390625,16.4652786254883,"Average","Field Observation","Water","hour",1
"512","HYDRODATACZ-HR","http://hydrodata.info/chmi-h/cuahsi_1_1.asmx?wsdl","CHMI-H:610","CHMI-H:PRUTOK",2007-06-17,2015-08-10,"Klášterec nad Orlicí",50.117000579834,16.5529003143311,"Average","Field Observation","Water","hour",1
"513","HYDRODATACZ-HR","http://hydrodata.info/chmi-h/cuahsi_1_1.asmx?wsdl","CHMI-H:611","CHMI-H:PRUTOK",2007-06-17,2015-08-10,"Sobkovice",50.0472946166992,16.6079807281494,"Average","Field Observation","Water","hour",1
"514","HYDRODATACZ-HR","http://hydrodata.info/chmi-h/cuahsi_1_1.asmx?wsdl","CHMI-H:612","CHMI-H:PRUTOK",2007-06-17,2015-08-10,"Spacice",49.8168334960938,15.5958404541016,"Average","Field Observation","Water","hour",1
"515","HYDRODATACZ-HR","http://hydrodata.info/chmi-h/cuahsi_1_1.asmx?wsdl","CHMI-H:613","CHMI-H:PRUTOK",2007-06-21,2015-08-10,"Kašava",49.2886543273926,17.7816123962402,"Average","Field Observation","Water","hour",1
"516","HYDRODATACZ-HR","http://hydrodata.info/chmi-h/cuahsi_1_1.asmx?wsdl","CHMI-H:614","CHMI-H:PRUTOK",2007-06-17,2015-08-10,"Bystricka nad prehradou",49.4184112548828,18.0447578430176,"Average","Field Observation","Water","hour",1
"517","HYDRODATACZ-HR","http://hydrodata.info/chmi-h/cuahsi_1_1.asmx?wsdl","CHMI-H:615","CHMI-H:PRUTOK",2007-06-17,2015-08-10,"Mezina",49.964054107666,17.4892978668213,"Average","Field Observation","Water","hour",1
"518","HYDRODATACZ-HR","http://hydrodata.info/chmi-h/cuahsi_1_1.asmx?wsdl","CHMI-H:616","CHMI-H:PRUTOK",2007-06-17,2015-08-10,"Valšov",49.9248008728027,17.4552822113037,"Average","Field Observation","Water","hour",1
"519","HYDRODATACZ-HR","http://hydrodata.info/chmi-h/cuahsi_1_1.asmx?wsdl","CHMI-H:617","CHMI-H:PRUTOK",2007-06-17,2015-08-10,"Otice",49.9163055419922,17.8690700531006,"Average","Field Observation","Water","hour",1
"520","HYDRODATACZ-HR","http://hydrodata.info/chmi-h/cuahsi_1_1.asmx?wsdl","CHMI-H:618","CHMI-H:PRUTOK",2007-06-21,2015-08-10,"Fulnek",49.7151947021484,17.9098072052002,"Average","Field Observation","Water","hour",1
"521","HYDRODATACZ-HR","http://hydrodata.info/chmi-h/cuahsi_1_1.asmx?wsdl","CHMI-H:619","CHMI-H:PRUTOK",2007-06-17,2014-11-22,"Petrvald",49.7125015258789,18.155834197998,"Average","Field Observation","Water","hour",1
"522","HYDRODATACZ-HR","http://hydrodata.info/chmi-h/cuahsi_1_1.asmx?wsdl","CHMI-H:620","CHMI-H:PRUTOK",2007-06-17,2015-08-10,"Brušperk",49.7001304626465,18.2203845977783,"Average","Field Observation","Water","hour",1
"523","HYDRODATACZ-HR","http://hydrodata.info/chmi-h/cuahsi_1_1.asmx?wsdl","CHMI-H:621","CHMI-H:PRUTOK",2007-06-22,2015-08-10,"Kozlovice",49.5909614562988,18.2576656341553,"Average","Field Observation","Water","hour",1
"524","HYDRODATACZ-HR","http://hydrodata.info/chmi-h/cuahsi_1_1.asmx?wsdl","CHMI-H:622","CHMI-H:PRUTOK",2007-06-18,2015-08-10,"Bartošovice",49.6880226135254,18.0406684875488,"Average","Field Observation","Water","hour",1
"525","HYDRODATACZ-HR","http://hydrodata.info/chmi-h/cuahsi_1_1.asmx?wsdl","CHMI-H:623","CHMI-H:PRUTOK",2007-06-18,2015-08-10,"Celadná",49.5483512878418,18.3420829772949,"Average","Field Observation","Water","hour",1
"526","HYDRODATACZ-HR","http://hydrodata.info/chmi-h/cuahsi_1_1.asmx?wsdl","CHMI-H:624","CHMI-H:PRUTOK",2007-06-18,2014-11-25,"Staré Hamry",49.4577789306641,18.4605560302734,"Average","Field Observation","Water","hour",1
"527","HYDRODATACZ-HR","http://hydrodata.info/chmi-h/cuahsi_1_1.asmx?wsdl","CHMI-H:625","CHMI-H:PRUTOK",2007-06-18,2015-08-10,"Radvanice",49.8165588378906,18.3312835693359,"Average","Field Observation","Water","hour",1
"528","HYDRODATACZ-HR","http://hydrodata.info/chmi-h/cuahsi_1_1.asmx?wsdl","CHMI-H:626","CHMI-H:PRUTOK",2007-06-22,2015-08-05,"Vresina",49.8290061950684,18.1261920928955,"Average","Field Observation","Water","hour",1
"529","HYDRODATACZ-HR","http://hydrodata.info/chmi-h/cuahsi_1_1.asmx?wsdl","CHMI-H:627","CHMI-H:PRUTOK",2007-06-18,2015-08-10,"Hradište",49.7283363342285,18.513162612915,"Average","Field Observation","Water","hour",1
"530","HYDRODATACZ-HR","http://hydrodata.info/chmi-h/cuahsi_1_1.asmx?wsdl","CHMI-H:628","CHMI-H:PRUTOK",2007-06-18,2015-08-10,"Morávka - Psárky",49.5683364868164,18.5494213104248,"Average","Field Observation","Water","hour",1
"531","HYDRODATACZ-HR","http://hydrodata.info/chmi-h/cuahsi_1_1.asmx?wsdl","CHMI-H:629","CHMI-H:PRUTOK",2007-06-18,2015-08-10,"Detmarovice",49.9002914428711,18.4797382354736,"Average","Field Observation","Water","hour",1
"532","HYDRODATACZ-HR","http://hydrodata.info/chmi-h/cuahsi_1_1.asmx?wsdl","CHMI-H:630","CHMI-H:PRUTOK",2007-06-18,2015-08-10,"Zebrzydowice",49.8803443908691,18.6070671081543,"Average","Field Observation","Water","hour",1
"533","HYDRODATACZ-HR","http://hydrodata.info/chmi-h/cuahsi_1_1.asmx?wsdl","CHMI-H:631","CHMI-H:PRUTOK",2007-09-01,2015-08-10,"Karlovice",50.0975799560547,17.4488353729248,"Average","Field Observation","Water","hour",1
"534","HYDRODATACZ-HR","http://hydrodata.info/chmi-h/cuahsi_1_1.asmx?wsdl","CHMI-H:632","CHMI-H:PRUTOK",2007-09-01,2014-11-17,"Vidnava",50.3833351135254,17.1666660308838,"Average","Field Observation","Water","hour",1
"535","HYDRODATACZ-HR","http://hydrodata.info/chmi-h/cuahsi_1_1.asmx?wsdl","CHMI-H:633","CHMI-H:PRUTOK",2007-09-01,2015-08-10,"Nový Jicín",49.5996284484863,18.0143165588379,"Average","Field Observation","Water","hour",1
"536","HYDRODATACZ-HR","http://hydrodata.info/chmi-h/cuahsi_1_1.asmx?wsdl","CHMI-H:681","CHMI-H:PRUTOK",2007-11-04,2015-08-10,"Zadní Porící",49.583179473877,13.9401817321777,"Average","Field Observation","Water","hour",1
"537","HYDRODATACZ-HR","http://hydrodata.info/chmi-h/cuahsi_1_1.asmx?wsdl","CHMI-H:682","CHMI-H:PRUTOK",2007-11-04,2015-07-27,"Milevsko",49.4568634033203,14.3668088912964,"Average","Field Observation","Water","hour",1
"538","HYDRODATACZ-HR","http://hydrodata.info/chmi-h/cuahsi_1_1.asmx?wsdl","CHMI-H:683","CHMI-H:PRUTOK",2007-11-04,2015-08-10,"Božetice",49.4504890441895,14.4458093643188,"Average","Field Observation","Water","hour",1
"539","HYDRODATACZ-HR","http://hydrodata.info/chmi-h/cuahsi_1_1.asmx?wsdl","CHMI-H:1094","CHMI-H:PRUTOK",2015-01-02,2015-07-15,"Bravantice",49.7576370239258,18.08229637146,"Average","Field Observation","Water","hour",1
"540","HYDRODATACZ-HR","http://hydrodata.info/chmi-h/cuahsi_1_1.asmx?wsdl","CHMI-H:140","CHMI-H:PRUTOK",2005-03-20,2015-08-10,"Odry",49.6655540466309,17.8397216796875,"Average","Field Observation","Water","hour",1
"541","HYDRODATACZ-HR","http://hydrodata.info/chmi-h/cuahsi_1_1.asmx?wsdl","CHMI-H:329","CHMI-H:PRUTOK",2014-12-29,2015-07-27,"Rozkoš",50.3612823486328,16.061695098877,"Average","Field Observation","Water","hour",1
"542","HYDRODATACZ-HR","http://hydrodata.info/chmi-h/cuahsi_1_1.asmx?wsdl","CHMI-H:347","CHMI-H:PRUTOK",2014-12-29,2015-08-10,"Trebovice",49.8576889038086,16.5031585693359,"Average","Field Observation","Water","hour",1
"543","HYDRODATACZ-HR","http://hydrodata.info/chmi-h/cuahsi_1_1.asmx?wsdl","CHMI-H:359","CHMI-H:PRUTOK",2014-12-29,2015-08-10,"VD Vrchlice",49.9277000427246,15.2283821105957,"Average","Field Observation","Water","hour",1
"544","HYDRODATACZ-HR","http://hydrodata.info/chmi-h/cuahsi_1_1.asmx?wsdl","CHMI-H:366","CHMI-H:PRUTOK",2014-12-29,2015-08-10,"Mšeno",50.7324905395508,15.1732120513916,"Average","Field Observation","Water","hour",1
"545","HYDRODATACZ-HR","http://hydrodata.info/chmi-h/cuahsi_1_1.asmx?wsdl","CHMI-H:367","CHMI-H:PRUTOK",2014-12-29,2015-08-10,"Harcov",50.7688789367676,15.0698947906494,"Average","Field Observation","Water","hour",1
"546","HYDRODATACZ-HR","http://hydrodata.info/chmi-h/cuahsi_1_1.asmx?wsdl","CHMI-H:369","CHMI-H:PRUTOK",2014-12-29,2015-08-10,"Rudolfov",50.7948570251465,15.1078023910522,"Average","Field Observation","Water","hour",1
"547","HYDRODATACZ-HR","http://hydrodata.info/chmi-h/cuahsi_1_1.asmx?wsdl","CHMI-H:370","CHMI-H:PRUTOK",2014-12-29,2015-08-10,"Fojtka",50.8278007507324,15.0586004257202,"Average","Field Observation","Water","hour",1
"548","HYDRODATACZ-HR","http://hydrodata.info/chmi-h/cuahsi_1_1.asmx?wsdl","CHMI-H:371","CHMI-H:PRUTOK",2014-12-29,2015-08-10,"Mlýnice",50.8412857055664,15.0288028717041,"Average","Field Observation","Water","hour",1
"549","HYDRODATACZ-HR","http://hydrodata.info/chmi-h/cuahsi_1_1.asmx?wsdl","CHMI-H:572","CHMI-H:PRUTOK",2014-12-29,2015-08-10,"VD Josefuv Dul",50.7827796936035,15.23277759552,"Average","Field Observation","Water","hour",1
"550","HYDRODATACZ-HR","http://hydrodata.info/chmi-h/cuahsi_1_1.asmx?wsdl","CHMI-H:718","CHMI-H:PRUTOK",2014-12-30,2015-08-10,"Strekov",50.6389045715332,14.0494289398193,"Average","Field Observation","Water","hour",1
"575","HYDRODATACZ-HR","http://hydrodata.info/chmi-h/cuahsi_1_1.asmx?wsdl","CHMI-H:465","CHMI-H:PRUTOK",2006-08-06,2015-08-10,"Dolní Sytová",50.625,15.4425001144409,"Average","Field Observation","Water","hour",1
"604","HYDRODATACZ-HR","http://hydrodata.info/chmi-h/cuahsi_1_1.asmx?wsdl","CHMI-H:202","CHMI-H:PRUTOK",2005-03-11,2015-08-10,"Železný Brod",50.6402778625488,15.2769441604614,"Average","Field Observation","Water","hour",1
"689","HYDRODATACZ-HR","http://hydrodata.info/chmi-h/cuahsi_1_1.asmx?wsdl","CHMI-H:204","CHMI-H:PRUTOK",2005-02-25,2015-08-10,"Dehylov",49.8794441223145,18.1794452667236,"Average","Field Observation","Water","hour",1
"841","HYDRODATACZ-HR","http://hydrodata.info/chmi-h/cuahsi_1_1.asmx?wsdl","CHMI-H:711","CHMI-H:PRUTOK",2007-12-06,2015-08-04,"Jíno",49.5091743469238,13.3056783676147,"Average","Field Observation","Water","hour",1
"842","HYDRODATACZ-HR","http://hydrodata.info/chmi-h/cuahsi_1_1.asmx?wsdl","CHMI-H:712","CHMI-H:PRUTOK",2007-12-06,2015-08-10,"Zelená Lhota",49.2463264465332,13.164698600769,"Average","Field Observation","Water","hour",1
"843","HYDRODATACZ-HR","http://hydrodata.info/chmi-h/cuahsi_1_1.asmx?wsdl","CHMI-H:742","CHMI-H:PRUTOK",2008-02-28,2015-08-10,"Cakovice",49.4601402282715,15.1738739013672,"Average","Field Observation","Water","hour",1
"844","HYDRODATACZ-HR","http://hydrodata.info/chmi-h/cuahsi_1_1.asmx?wsdl","CHMI-H:741","CHMI-H:PRUTOK",2008-02-28,2015-08-10,"Podhora",49.9620704650879,12.8139009475708,"Average","Field Observation","Water","hour",1
"845","HYDRODATACZ-HR","http://hydrodata.info/chmi-h/cuahsi_1_1.asmx?wsdl","CHMI-H:752","CHMI-H:PRUTOK",2009-03-03,2015-08-10,"Obecnice",49.7149314880371,13.9474716186523,"Average","Field Observation","Water","hour",1
"846","HYDRODATACZ-HR","http://hydrodata.info/chmi-h/cuahsi_1_1.asmx?wsdl","CHMI-H:755","CHMI-H:PRUTOK",2009-03-03,2015-08-10,"Rokycany - Na Pátku",49.7424926757812,13.5993776321411,"Average","Field Observation","Water","hour",1
"847","HYDRODATACZ-HR","http://hydrodata.info/chmi-h/cuahsi_1_1.asmx?wsdl","CHMI-H:760","CHMI-H:PRUTOK",2009-03-03,2015-08-10,"Leopoldschlag",48.6186103820801,14.5016670227051,"Average","Field Observation","Water","hour",1
"848","HYDRODATACZ-HR","http://hydrodata.info/chmi-h/cuahsi_1_1.asmx?wsdl","CHMI-H:761","CHMI-H:PRUTOK",2009-03-03,2015-08-10,"Spolí",48.7906379699707,14.303729057312,"Average","Field Observation","Water","hour",1
"849","HYDRODATACZ-HR","http://hydrodata.info/chmi-h/cuahsi_1_1.asmx?wsdl","CHMI-H:763","CHMI-H:PRUTOK",2009-03-03,2015-08-10,"Klikov",48.9051132202148,14.9065523147583,"Average","Field Observation","Water","hour",1
"850","HYDRODATACZ-HR","http://hydrodata.info/chmi-h/cuahsi_1_1.asmx?wsdl","CHMI-H:764","CHMI-H:PRUTOK",2009-03-03,2015-08-10,"Nová Bystrice",49.0177764892578,15.1061115264893,"Average","Field Observation","Water","hour",1
"851","HYDRODATACZ-HR","http://hydrodata.info/chmi-h/cuahsi_1_1.asmx?wsdl","CHMI-H:765","CHMI-H:PRUTOK",2009-03-03,2015-08-10,"Hoheneich",48.7756767272949,15.0329923629761,"Average","Field Observation","Water","hour",1
"852","HYDRODATACZ-HR","http://hydrodata.info/chmi-h/cuahsi_1_1.asmx?wsdl","CHMI-H:766","CHMI-H:PRUTOK",2009-03-03,2015-08-10,"Ehrendorf",48.7578620910645,14.9572229385376,"Average","Field Observation","Water","hour",1
"853","HYDRODATACZ-HR","http://hydrodata.info/chmi-h/cuahsi_1_1.asmx?wsdl","CHMI-H:770","CHMI-H:PRUTOK",2010-05-31,2015-08-10,"Batelov",49.3141670227051,15.408055305481,"Average","Field Observation","Water","hour",1
"854","HYDRODATACZ-HR","http://hydrodata.info/chmi-h/cuahsi_1_1.asmx?wsdl","CHMI-H:771","CHMI-H:PRUTOK",2010-05-31,2015-08-10,"Brtnice",49.3008346557617,15.6800003051758,"Average","Field Observation","Water","hour",1
"855","HYDRODATACZ-HR","http://hydrodata.info/chmi-h/cuahsi_1_1.asmx?wsdl","CHMI-H:772","CHMI-H:PRUTOK",2010-05-30,2015-01-10,"Dolní Bory",49.422779083252,15.9869441986084,"Average","Field Observation","Water","hour",1
"856","HYDRODATACZ-HR","http://hydrodata.info/chmi-h/cuahsi_1_1.asmx?wsdl","CHMI-H:773","CHMI-H:PRUTOK",2010-05-30,2015-08-10,"Nesmer",49.3199996948242,16.0272216796875,"Average","Field Observation","Water","hour",1
"857","HYDRODATACZ-HR","http://hydrodata.info/chmi-h/cuahsi_1_1.asmx?wsdl","CHMI-H:774","CHMI-H:PRUTOK",2010-05-30,2015-08-10,"Schwarzenau",48.7416648864746,15.2597217559814,"Average","Field Observation","Water","hour",1
"858","HYDRODATACZ-HR","http://hydrodata.info/chmi-h/cuahsi_1_1.asmx?wsdl","CHMI-H:775","CHMI-H:PRUTOK",2010-05-30,2015-08-10,"Raabs",48.8600006103516,15.489444732666,"Average","Field Observation","Water","hour",1
"859","HYDRODATACZ-HR","http://hydrodata.info/chmi-h/cuahsi_1_1.asmx?wsdl","CHMI-H:776","CHMI-H:PRUTOK",2010-05-30,2015-08-10,"Vysocany",48.960277557373,15.6855554580688,"Average","Field Observation","Water","hour",1
"860","HYDRODATACZ-HR","http://hydrodata.info/chmi-h/cuahsi_1_1.asmx?wsdl","CHMI-H:777","CHMI-H:PRUTOK",2010-05-30,2015-01-10,"Vranov - Hamry",48.8950004577637,15.8205556869507,"Average","Field Observation","Water","hour",1
"861","HYDRODATACZ-HR","http://hydrodata.info/chmi-h/cuahsi_1_1.asmx?wsdl","CHMI-H:778","CHMI-H:PRUTOK",2010-05-30,2015-08-10,"Skryje",49.3797225952148,16.3199996948242,"Average","Field Observation","Water","hour",1
"862","HYDRODATACZ-HR","http://hydrodata.info/chmi-h/cuahsi_1_1.asmx?wsdl","CHMI-H:779","CHMI-H:PRUTOK",2010-05-30,2015-08-10,"Brankovice",49.1538887023926,17.1361103057861,"Average","Field Observation","Water","hour",1
"863","HYDRODATACZ-HR","http://hydrodata.info/chmi-h/cuahsi_1_1.asmx?wsdl","CHMI-H:780","CHMI-H:PRUTOK",2010-05-30,2015-08-10,"Rychmanov",49.103889465332,16.7644443511963,"Average","Field Observation","Water","hour",1
"864","HYDRODATACZ-HR","http://hydrodata.info/chmi-h/cuahsi_1_1.asmx?wsdl","CHMI-H:781","CHMI-H:PRUTOK",2010-05-30,2015-08-10,"Velké Pavlovice",48.9077796936035,16.8219451904297,"Average","Field Observation","Water","hour",1
"865","HYDRODATACZ-HR","http://hydrodata.info/chmi-h/cuahsi_1_1.asmx?wsdl","CHMI-H:782","CHMI-H:PRUTOK",2010-05-30,2015-08-10,"Kyjov",49.0116653442383,17.1230564117432,"Average","Field Observation","Water","hour",1
"866","HYDRODATACZ-HR","http://hydrodata.info/chmi-h/cuahsi_1_1.asmx?wsdl","CHMI-H:783","CHMI-H:PRUTOK",2010-05-30,2015-08-10,"Velká nad Velickou",48.8761100769043,17.5208339691162,"Average","Field Observation","Water","hour",1
"867","HYDRODATACZ-HR","http://hydrodata.info/chmi-h/cuahsi_1_1.asmx?wsdl","CHMI-H:784","CHMI-H:PRUTOK",2010-05-30,2015-08-10,"Strážnice V",48.9049987792969,17.3452777862549,"Average","Field Observation","Water","hour",1
"868","HYDRODATACZ-HR","http://hydrodata.info/chmi-h/cuahsi_1_1.asmx?wsdl","CHMI-H:785","CHMI-H:PRUTOK",2010-05-30,2015-08-10,"Vyškov",49.2822227478027,16.9972229003906,"Average","Field Observation","Water","hour",1
"869","HYDRODATACZ-HR","http://hydrodata.info/chmi-h/cuahsi_1_1.asmx?wsdl","CHMI-H:786","CHMI-H:PRUTOK",2010-05-30,2015-08-10,"Prusy",49.4283332824707,17.5174999237061,"Average","Field Observation","Water","hour",1
"870","HYDRODATACZ-HR","http://hydrodata.info/chmi-h/cuahsi_1_1.asmx?wsdl","CHMI-H:787","CHMI-H:PRUTOK",2010-05-30,2015-08-10,"Otaslavice",49.3875007629395,17.0725002288818,"Average","Field Observation","Water","hour",1
"871","HYDRODATACZ-HR","http://hydrodata.info/chmi-h/cuahsi_1_1.asmx?wsdl","CHMI-H:788","CHMI-H:PRUTOK",2010-05-30,2015-08-10,"Stražisko",49.5347213745117,16.9563884735107,"Average","Field Observation","Water","hour",1
"872","HYDRODATACZ-HR","http://hydrodata.info/chmi-h/cuahsi_1_1.asmx?wsdl","CHMI-H:789","CHMI-H:PRUTOK",2010-05-30,2015-08-10,"VD Plumlov",49.4702796936035,17.0419445037842,"Average","Field Observation","Water","hour",1
"873","HYDRODATACZ-HR","http://hydrodata.info/chmi-h/cuahsi_1_1.asmx?wsdl","CHMI-H:790","CHMI-H:PRUTOK",2010-05-30,2015-08-10,"Polkovice",49.3955574035645,17.265832901001,"Average","Field Observation","Water","hour",1
"874","HYDRODATACZ-HR","http://hydrodata.info/chmi-h/cuahsi_1_1.asmx?wsdl","CHMI-H:791","CHMI-H:PRUTOK",2010-05-30,2015-08-10,"Kokory",49.4972229003906,17.3763885498047,"Average","Field Observation","Water","hour",1
"875","HYDRODATACZ-HR","http://hydrodata.info/chmi-h/cuahsi_1_1.asmx?wsdl","CHMI-H:792","CHMI-H:PRUTOK",2010-05-30,2015-08-10,"Kelc",49.4730567932129,17.8308334350586,"Average","Field Observation","Water","hour",1
"876","HYDRODATACZ-HR","http://hydrodata.info/chmi-h/cuahsi_1_1.asmx?wsdl","CHMI-H:793","CHMI-H:PRUTOK",2011-07-23,2015-08-10,"Ústí",49.3061103820801,18.0044441223145,"Average","Field Observation","Water","hour",1
"877","HYDRODATACZ-HR","http://hydrodata.info/chmi-h/cuahsi_1_1.asmx?wsdl","CHMI-H:794","CHMI-H:PRUTOK",2010-05-30,2015-08-10,"Velká Bystrice",49.5950012207031,17.3430557250977,"Average","Field Observation","Water","hour",1
"878","HYDRODATACZ-HR","http://hydrodata.info/chmi-h/cuahsi_1_1.asmx?wsdl","CHMI-H:795","CHMI-H:PRUTOK",2010-05-30,2015-08-10,"Hoštejn",49.8783340454102,16.7638893127441,"Average","Field Observation","Water","hour",1
"879","HYDRODATACZ-HR","http://hydrodata.info/chmi-h/cuahsi_1_1.asmx?wsdl","CHMI-H:796","CHMI-H:PRUTOK",2010-05-30,2015-08-10,"Habartice",50.1030540466309,16.9316673278809,"Average","Field Observation","Water","hour",1
"880","HYDRODATACZ-HR","http://hydrodata.info/chmi-h/cuahsi_1_1.asmx?wsdl","CHMI-H:797","CHMI-H:PRUTOK",2010-05-30,2015-08-10,"Velká Štáhle",50.1002769470215,17.1130561828613,"Average","Field Observation","Water","hour",1
"881","HYDRODATACZ-HR","http://hydrodata.info/chmi-h/cuahsi_1_1.asmx?wsdl","CHMI-H:798","CHMI-H:PRUTOK",2010-05-30,2015-08-10,"Kouty nad Desnou",49.9202766418457,17.3536109924316,"Average","Field Observation","Water","hour",1
"882","HYDRODATACZ-HR","http://hydrodata.info/chmi-h/cuahsi_1_1.asmx?wsdl","CHMI-H:799","CHMI-H:PRUTOK",2010-05-30,2014-12-28,"Mnichov",50.1522216796875,17.3747215270996,"Average","Field Observation","Water","hour",1
"883","HYDRODATACZ-HR","http://hydrodata.info/chmi-h/cuahsi_1_1.asmx?wsdl","CHMI-H:800","CHMI-H:PRUTOK",2010-05-30,2014-12-28,"Branka u Opavy",49.8944435119629,17.8919448852539,"Average","Field Observation","Water","hour",1
"884","HYDRODATACZ-HR","http://hydrodata.info/chmi-h/cuahsi_1_1.asmx?wsdl","CHMI-H:807","CHMI-H:PRUTOK",2011-01-09,2015-08-10,"Chaloupky",50.3747215270996,12.6661109924316,"Average","Field Observation","Water","hour",1
"885","HYDRODATACZ-HR","http://hydrodata.info/chmi-h/cuahsi_1_1.asmx?wsdl","CHMI-H:808","CHMI-H:PRUTOK",2011-01-09,2015-08-10,"Cerný Potok",50.4897232055664,13.0791664123535,"Average","Field Observation","Water","hour",1
"886","HYDRODATACZ-HR","http://hydrodata.info/chmi-h/cuahsi_1_1.asmx?wsdl","CHMI-H:839","CHMI-H:PRUTOK",2011-01-09,2015-08-10,"Rosice",49.9144439697266,15.9491662979126,"Average","Field Observation","Water","hour",1
"887","HYDRODATACZ-HR","http://hydrodata.info/chmi-h/cuahsi_1_1.asmx?wsdl","CHMI-H:840","CHMI-H:PRUTOK",2011-01-09,2015-08-10,"Skuhrov",50.2277793884277,16.2900009155273,"Average","Field Observation","Water","hour",1
"888","HYDRODATACZ-HR","http://hydrodata.info/chmi-h/cuahsi_1_1.asmx?wsdl","CHMI-H:809","CHMI-H:PRUTOK",2011-01-09,2015-08-10,"Kryštofovy Hamry",50.4986114501953,13.1358337402344,"Average","Field Observation","Water","hour",1
"889","HYDRODATACZ-HR","http://hydrodata.info/chmi-h/cuahsi_1_1.asmx?wsdl","CHMI-H:810","CHMI-H:PRUTOK",2011-01-09,2015-08-10,"Jílové",50.7619438171387,14.1041669845581,"Average","Field Observation","Water","hour",1
"890","HYDRODATACZ-HR","http://hydrodata.info/chmi-h/cuahsi_1_1.asmx?wsdl","CHMI-H:812","CHMI-H:PRUTOK",2011-01-09,2015-08-10,"Cvikov",50.776668548584,14.6366662979126,"Average","Field Observation","Water","hour",1
"891","HYDRODATACZ-HR","http://hydrodata.info/chmi-h/cuahsi_1_1.asmx?wsdl","CHMI-H:813","CHMI-H:PRUTOK",2011-01-10,2015-08-10,"Stružnice",50.6919441223145,14.4694442749023,"Average","Field Observation","Water","hour",1
"892","HYDRODATACZ-HR","http://hydrodata.info/chmi-h/cuahsi_1_1.asmx?wsdl","CHMI-H:814","CHMI-H:PRUTOK",2011-01-09,2015-08-10,"Decín - Breziny",50.7622222900391,14.2419443130493,"Average","Field Observation","Water","hour",1
"893","HYDRODATACZ-HR","http://hydrodata.info/chmi-h/cuahsi_1_1.asmx?wsdl","CHMI-H:815","CHMI-H:PRUTOK",2011-01-09,2015-08-10,"Rumburk",50.948055267334,14.5708332061768,"Average","Field Observation","Water","hour",1
"894","HYDRODATACZ-HR","http://hydrodata.info/chmi-h/cuahsi_1_1.asmx?wsdl","CHMI-H:816","CHMI-H:PRUTOK",2011-01-09,2015-08-10,"Všemily",50.8394432067871,14.3783330917358,"Average","Field Observation","Water","hour",1
"895","HYDRODATACZ-HR","http://hydrodata.info/chmi-h/cuahsi_1_1.asmx?wsdl","CHMI-H:817","CHMI-H:PRUTOK",2011-01-09,2015-08-10,"Hrensko",50.8786125183105,14.2516670227051,"Average","Field Observation","Water","hour",1
"896","HYDRODATACZ-HR","http://hydrodata.info/chmi-h/cuahsi_1_1.asmx?wsdl","CHMI-H:818","CHMI-H:PRUTOK",2011-01-09,2015-08-10,"Hrensko",50.8872222900391,14.2358331680298,"Average","Field Observation","Water","hour",1
"897","HYDRODATACZ-HR","http://hydrodata.info/chmi-h/cuahsi_1_1.asmx?wsdl","CHMI-H:827","CHMI-H:PRUTOK",2011-01-09,2015-08-10,"Bílá Smedá",50.8466682434082,15.2716665267944,"Average","Field Observation","Water","hour",1
"898","HYDRODATACZ-HR","http://hydrodata.info/chmi-h/cuahsi_1_1.asmx?wsdl","CHMI-H:828","CHMI-H:PRUTOK",2011-01-09,2015-08-10,"Frýdlant - Rásnice",50.9483337402344,15.1697225570679,"Average","Field Observation","Water","hour",1
"899","HYDRODATACZ-HR","http://hydrodata.info/chmi-h/cuahsi_1_1.asmx?wsdl","CHMI-H:829","CHMI-H:PRUTOK",2011-01-09,2015-08-10,"Višnová",50.9558334350586,15.0286111831665,"Average","Field Observation","Water","hour",1
"900","HYDRODATACZ-HR","http://hydrodata.info/chmi-h/cuahsi_1_1.asmx?wsdl","CHMI-H:830","CHMI-H:PRUTOK",2011-01-11,2014-12-28,"Prosec nad Nisou",50.7244453430176,15.1322221755981,"Average","Field Observation","Water","hour",1
"901","HYDRODATACZ-HR","http://hydrodata.info/chmi-h/cuahsi_1_1.asmx?wsdl","CHMI-H:831","CHMI-H:PRUTOK",2011-01-09,2015-08-10,"Chrastava",50.8194427490234,14.9713888168335,"Average","Field Observation","Water","hour",1
"902","HYDRODATACZ-HR","http://hydrodata.info/chmi-h/cuahsi_1_1.asmx?wsdl","CHMI-H:833","CHMI-H:PRUTOK",2011-01-09,2015-08-10,"Bohunovsko",50.6549987792969,15.3277778625488,"Average","Field Observation","Water","hour",1
"903","HYDRODATACZ-HR","http://hydrodata.info/chmi-h/cuahsi_1_1.asmx?wsdl","CHMI-H:834","CHMI-H:PRUTOK",2011-01-09,2015-08-10,"Pelešany",50.5711097717285,15.1708335876465,"Average","Field Observation","Water","hour",1
"904","HYDRODATACZ-HR","http://hydrodata.info/chmi-h/cuahsi_1_1.asmx?wsdl","CHMI-H:835","CHMI-H:PRUTOK",2011-01-09,2015-08-10,"Sovenice",50.5619430541992,14.9886112213135,"Average","Field Observation","Water","hour",1
"905","HYDRODATACZ-HR","http://hydrodata.info/chmi-h/cuahsi_1_1.asmx?wsdl","CHMI-H:836","CHMI-H:PRUTOK",2011-01-09,2015-08-10,"Sendražice",50.2972221374512,15.8197221755981,"Average","Field Observation","Water","hour",1
"906","HYDRODATACZ-HR","http://hydrodata.info/chmi-h/cuahsi_1_1.asmx?wsdl","CHMI-H:837","CHMI-H:PRUTOK",2011-01-09,2015-08-10,"Barchov",49.9966659545898,15.6824998855591,"Average","Field Observation","Water","hour",1
"907","HYDRODATACZ-HR","http://hydrodata.info/chmi-h/cuahsi_1_1.asmx?wsdl","CHMI-H:838","CHMI-H:PRUTOK",2011-01-09,2014-12-28,"Luže",49.8872222900391,16.026388168335,"Average","Field Observation","Water","hour",1
"908","HYDRODATACZ-HR","http://hydrodata.info/chmi-h/cuahsi_1_1.asmx?wsdl","CHMI-H:904","CHMI-H:PRUTOK",2011-01-12,2015-06-11,"Cernošice",49.9604988098145,14.3263998031616,"Average","Field Observation","Water","hour",1
"909","HYDRODATACZ-HR","http://hydrodata.info/chmi-h/cuahsi_1_1.asmx?wsdl","CHMI-H:906","CHMI-H:PRUTOK",2011-01-12,2015-08-04,"Libomyšl",49.871223449707,14.0045471191406,"Average","Field Observation","Water","hour",1
"910","HYDRODATACZ-HR","http://hydrodata.info/chmi-h/cuahsi_1_1.asmx?wsdl","CHMI-H:908","CHMI-H:PRUTOK",2011-01-12,2015-08-10,"Dolní Belá",49.896427154541,13.2747201919556,"Average","Field Observation","Water","hour",1
"911","HYDRODATACZ-HR","http://hydrodata.info/chmi-h/cuahsi_1_1.asmx?wsdl","CHMI-H:909","CHMI-H:PRUTOK",2011-01-12,2015-08-10,"Nevren",49.8228912353516,13.2788391113281,"Average","Field Observation","Water","hour",1
"912","HYDRODATACZ-HR","http://hydrodata.info/chmi-h/cuahsi_1_1.asmx?wsdl","CHMI-H:911","CHMI-H:PRUTOK",2011-01-12,2015-08-10,"Kocov",49.8042907714844,12.7371244430542,"Average","Field Observation","Water","hour",1
"913","HYDRODATACZ-HR","http://hydrodata.info/chmi-h/cuahsi_1_1.asmx?wsdl","CHMI-H:913","CHMI-H:PRUTOK",2011-01-12,2015-08-10,"Klencí",49.4417343139648,12.8400592803955,"Average","Field Observation","Water","hour",1
"914","HYDRODATACZ-HR","http://hydrodata.info/chmi-h/cuahsi_1_1.asmx?wsdl","CHMI-H:915","CHMI-H:PRUTOK",2011-01-12,2015-08-10,"Alžbetín",49.1219444274902,13.2080564498901,"Average","Field Observation","Water","hour",1
"915","HYDRODATACZ-HR","http://hydrodata.info/chmi-h/cuahsi_1_1.asmx?wsdl","CHMI-H:916","CHMI-H:PRUTOK",2011-01-12,2015-08-10,"Janovice nad Úhlavou",49.3413276672363,13.2121887207031,"Average","Field Observation","Water","hour",1
"916","HYDRODATACZ-HR","http://hydrodata.info/chmi-h/cuahsi_1_1.asmx?wsdl","CHMI-H:918","CHMI-H:PRUTOK",2011-01-12,2015-08-10,"Klatovy",49.3882217407227,13.2972478866577,"Average","Field Observation","Water","hour",1
"917","HYDRODATACZ-HR","http://hydrodata.info/chmi-h/cuahsi_1_1.asmx?wsdl","CHMI-H:950","CHMI-H:PRUTOK",2011-07-22,2015-08-10,"Soumarský most",48.9077529907227,13.8271188735962,"Average","Field Observation","Water","hour",1
"918","HYDRODATACZ-HR","http://hydrodata.info/chmi-h/cuahsi_1_1.asmx?wsdl","CHMI-H:951","CHMI-H:PRUTOK",2011-07-23,2015-08-10,"Doudleby - Rechle",48.9035415649414,14.495943069458,"Average","Field Observation","Water","hour",1
"919","HYDRODATACZ-HR","http://hydrodata.info/chmi-h/cuahsi_1_1.asmx?wsdl","CHMI-H:952","CHMI-H:PRUTOK",2011-07-23,2015-08-10,"Horní Stropnice",48.7638282775879,14.7361192703247,"Average","Field Observation","Water","hour",1
"920","HYDRODATACZ-HR","http://hydrodata.info/chmi-h/cuahsi_1_1.asmx?wsdl","CHMI-H:954","CHMI-H:PRUTOK",2011-07-23,2015-08-10,"Pilar ZS",48.9501304626465,14.8715572357178,"Average","Field Observation","Water","hour",1
"921","HYDRODATACZ-HR","http://hydrodata.info/chmi-h/cuahsi_1_1.asmx?wsdl","CHMI-H:955","CHMI-H:PRUTOK",2011-07-23,2015-08-10,"Rožmberk",49.0491256713867,14.7617635726929,"Average","Field Observation","Water","hour",1
"922","HYDRODATACZ-HR","http://hydrodata.info/chmi-h/cuahsi_1_1.asmx?wsdl","CHMI-H:957","CHMI-H:PRUTOK",2011-07-31,2015-08-10,"Horní Pole",49.202278137207,15.2941007614136,"Average","Field Observation","Water","hour",1
"923","HYDRODATACZ-HR","http://hydrodata.info/chmi-h/cuahsi_1_1.asmx?wsdl","CHMI-H:959","CHMI-H:PRUTOK",2011-07-23,2013-12-04,"Jesenice",49.6071586608887,14.480242729187,"Average","Field Observation","Water","hour",1
"924","HYDRODATACZ-HR","http://hydrodata.info/chmi-h/cuahsi_1_1.asmx?wsdl","CHMI-H:961","CHMI-H:PRUTOK",2011-07-23,2015-08-10,"Radotín - lávka",49.9814033508301,14.3624839782715,"Average","Field Observation","Water","hour",1
"925","HYDRODATACZ-HR","http://hydrodata.info/chmi-h/cuahsi_1_1.asmx?wsdl","CHMI-H:967","CHMI-H:PRUTOK",2011-07-23,2015-08-10,"Porící nad Sázavou",49.8353843688965,14.6773529052734,"Average","Field Observation","Water","hour",1
"926","HYDRODATACZ-HR","http://hydrodata.info/chmi-h/cuahsi_1_1.asmx?wsdl","CHMI-H:968","CHMI-H:PRUTOK",2011-07-23,2015-08-03,"Ceský Šternberk",49.8116149902344,14.9311714172363,"Average","Field Observation","Water","hour",1
"927","HYDRODATACZ-HR","http://hydrodata.info/chmi-h/cuahsi_1_1.asmx?wsdl","CHMI-H:969","CHMI-H:PRUTOK",2011-07-23,2015-08-10,"Kojcice",49.4820938110352,15.2493858337402,"Average","Field Observation","Water","hour",1
"928","HYDRODATACZ-HR","http://hydrodata.info/chmi-h/cuahsi_1_1.asmx?wsdl","CHMI-H:970","CHMI-H:PRUTOK",2011-07-23,2015-08-10,"Porící",49.4820938110352,15.2493858337402,"Average","Field Observation","Water","hour",1
"929","HYDRODATACZ-HR","http://hydrodata.info/chmi-h/cuahsi_1_1.asmx?wsdl","CHMI-H:971","CHMI-H:PRUTOK",2011-07-23,2015-08-10,"Želiv - Vresník",49.5290794372559,15.2424392700195,"Average","Field Observation","Water","hour",1
"930","HYDRODATACZ-HR","http://hydrodata.info/chmi-h/cuahsi_1_1.asmx?wsdl","CHMI-H:972","CHMI-H:PRUTOK",2011-07-23,2015-08-10,"Želiv - Kocanda",49.5276336669922,15.2193822860718,"Average","Field Observation","Water","hour",1
"931","HYDRODATACZ-HR","http://hydrodata.info/chmi-h/cuahsi_1_1.asmx?wsdl","CHMI-H:973","CHMI-H:PRUTOK",2011-07-23,2015-08-10,"Vlásenice",49.4243927001953,15.1634883880615,"Average","Field Observation","Water","hour",1
"932","HYDRODATACZ-HR","http://hydrodata.info/chmi-h/cuahsi_1_1.asmx?wsdl","CHMI-H:974","CHMI-H:PRUTOK",2011-07-23,2015-08-10,"Olešnice u Okrouhlice",49.6388397216797,15.4821443557739,"Average","Field Observation","Water","hour",1
"933","HYDRODATACZ-HR","http://hydrodata.info/chmi-h/cuahsi_1_1.asmx?wsdl","CHMI-H:975","CHMI-H:PRUTOK",2011-07-23,2015-08-10,"Sázava u Ždáru",49.5608329772949,15.8559494018555,"Average","Field Observation","Water","hour",1
"934","HYDRODATACZ-HR","http://hydrodata.info/chmi-h/cuahsi_1_1.asmx?wsdl","CHMI-H:977","CHMI-H:PRUTOK",2011-08-01,2015-08-10,"Peklo",50.3791007995605,16.1858997344971,"Average","Field Observation","Water","hour",1
"935","HYDRODATACZ-HR","http://hydrodata.info/chmi-h/cuahsi_1_1.asmx?wsdl","CHMI-H:978","CHMI-H:PRUTOK",2011-08-01,2015-08-10,"Žákovec",50.2801170349121,16.2465972900391,"Average","Field Observation","Water","hour",1
"936","HYDRODATACZ-HR","http://hydrodata.info/chmi-h/cuahsi_1_1.asmx?wsdl","CHMI-H:979","CHMI-H:PRUTOK",2011-08-01,2015-01-10,"Opatovice",50.1643981933594,15.8092002868652,"Average","Field Observation","Water","hour",1
"937","HYDRODATACZ-HR","http://hydrodata.info/chmi-h/cuahsi_1_1.asmx?wsdl","CHMI-H:980","CHMI-H:PRUTOK",2012-04-06,2015-08-10,"Pardubice",50.0463981628418,15.7809000015259,"Average","Field Observation","Water","hour",1
"938","HYDRODATACZ-HR","http://hydrodata.info/chmi-h/cuahsi_1_1.asmx?wsdl","CHMI-H:981","CHMI-H:PRUTOK",2012-04-02,2015-08-10,"Valy",50.0334014892578,15.6183996200562,"Average","Field Observation","Water","hour",1
"939","HYDRODATACZ-HR","http://hydrodata.info/chmi-h/cuahsi_1_1.asmx?wsdl","CHMI-H:982","CHMI-H:PRUTOK",2012-04-02,2015-08-10,"Nymburk",50.1850395202637,15.0505886077881,"Average","Field Observation","Water","hour",1
"940","HYDRODATACZ-HR","http://hydrodata.info/chmi-h/cuahsi_1_1.asmx?wsdl","CHMI-H:983","CHMI-H:PRUTOK",2011-08-01,2015-08-10,"Parížov",49.8302230834961,15.5661926269531,"Average","Field Observation","Water","hour",1
"941","HYDRODATACZ-HR","http://hydrodata.info/chmi-h/cuahsi_1_1.asmx?wsdl","CHMI-H:984","CHMI-H:PRUTOK",2011-08-01,2015-08-10,"Lány",49.7260971069336,15.9515924453735,"Average","Field Observation","Water","hour",1
"942","HYDRODATACZ-HR","http://hydrodata.info/chmi-h/cuahsi_1_1.asmx?wsdl","CHMI-H:985","CHMI-H:PRUTOK",2011-08-01,2015-08-10,"Padrty",49.8422508239746,15.6779870986938,"Average","Field Observation","Water","hour",1
"943","HYDRODATACZ-HR","http://hydrodata.info/chmi-h/cuahsi_1_1.asmx?wsdl","CHMI-H:986","CHMI-H:PRUTOK",2012-01-01,2015-08-10,"Otradov",49.7964668273926,16.0518493652344,"Average","Field Observation","Water","hour",1
"944","HYDRODATACZ-HR","http://hydrodata.info/chmi-h/cuahsi_1_1.asmx?wsdl","CHMI-H:987","CHMI-H:PRUTOK",2011-08-01,2015-07-17,"Opatov",49.8375015258789,16.5081005096436,"Average","Field Observation","Water","hour",1
"945","HYDRODATACZ-HR","http://hydrodata.info/chmi-h/cuahsi_1_1.asmx?wsdl","CHMI-H:988","CHMI-H:PRUTOK",2011-08-23,2015-08-10,"Popov",49.0809440612793,17.9682006835938,"Average","Field Observation","Water","hour",1
"946","HYDRODATACZ-HR","http://hydrodata.info/chmi-h/cuahsi_1_1.asmx?wsdl","CHMI-H:989","CHMI-H:PRUTOK",2011-08-28,2015-08-10,"Brumov",49.0857009887695,18.0199356079102,"Average","Field Observation","Water","hour",1
"947","HYDRODATACZ-HR","http://hydrodata.info/chmi-h/cuahsi_1_1.asmx?wsdl","CHMI-H:990","CHMI-H:PRUTOK",2013-02-07,2014-12-28,"Kostelec",49.2740364074707,17.7076950073242,"Average","Field Observation","Water","hour",1
"948","HYDRODATACZ-HR","http://hydrodata.info/chmi-h/cuahsi_1_1.asmx?wsdl","CHMI-H:991","CHMI-H:PRUTOK",2011-08-23,2014-12-28,"Výlanta",49.276611328125,17.665979385376,"Average","Field Observation","Water","hour",1
"949","HYDRODATACZ-HR","http://hydrodata.info/chmi-h/cuahsi_1_1.asmx?wsdl","CHMI-H:992","CHMI-H:PRUTOK",2011-08-28,2014-12-28,"Dolní Ves",49.2788429260254,17.6775951385498,"Average","Field Observation","Water","hour",1
"950","HYDRODATACZ-HR","http://hydrodata.info/chmi-h/cuahsi_1_1.asmx?wsdl","CHMI-H:993","CHMI-H:PRUTOK",2011-08-23,2014-12-28,"VD Fryšták",49.2640571594238,17.6913661956787,"Average","Field Observation","Water","hour",1
"951","HYDRODATACZ-HR","http://hydrodata.info/chmi-h/cuahsi_1_1.asmx?wsdl","CHMI-H:1008","CHMI-H:PRUTOK",2012-06-08,2015-08-10,"Rajnochovice",49.4160690307617,17.8083000183105,"Average","Field Observation","Water","hour",1
"952","HYDRODATACZ-HR","http://hydrodata.info/chmi-h/cuahsi_1_1.asmx?wsdl","CHMI-H:1010","CHMI-H:PRUTOK",2013-02-11,2014-11-15,"Stránky",50.2900009155273,13.5699996948242,"Average","Field Observation","Water","hour",1
"961","HYDRODATACZ-HR","http://hydrodata.info/chmi-h/cuahsi_1_1.asmx?wsdl","CHMI-H:1011","CHMI-H:PRUTOK",2013-02-11,2015-08-10,"Pila",50.1767692565918,12.9218263626099,"Average","Field Observation","Water","hour",1
"962","HYDRODATACZ-HR","http://hydrodata.info/chmi-h/cuahsi_1_1.asmx?wsdl","CHMI-H:1016","CHMI-H:PRUTOK",2013-07-15,2015-01-02,"Zajecice",49.9109916687012,15.8828563690186,"Average","Field Observation","Water","hour",1
"963","HYDRODATACZ-HR","http://hydrodata.info/chmi-h/cuahsi_1_1.asmx?wsdl","CHMI-H:1017","CHMI-H:PRUTOK",2013-07-15,2015-08-10,"Mezisvetí",49.853759765625,15.7514057159424,"Average","Field Observation","Water","hour",1
"1218","HYDRODATACZ-HR","http://hydrodata.info/chmi-h/cuahsi_1_1.asmx?wsdl","CHMI-H:1275","CHMI-H:PRUTOK",2014-07-27,2015-08-10,"Stará Belá",49.7634124755859,18.2168140411377,"Average","Field Observation","Water","hour",1
"1219","HYDRODATACZ-HR","http://hydrodata.info/chmi-h/cuahsi_1_1.asmx?wsdl","CHMI-H:1276","CHMI-H:PRUTOK",2014-07-27,2015-08-10,"Frýdek - Místek",49.6863098144531,18.3400001525879,"Average","Field Observation","Water","hour",1
"1220","HYDRODATACZ-HR","http://hydrodata.info/chmi-h/cuahsi_1_1.asmx?wsdl","CHMI-H:1277","CHMI-H:PRUTOK",2014-07-27,2015-08-10,"Raškovice",49.6012001037598,18.4739418029785,"Average","Field Observation","Water","hour",1
"1221","HYDRODATACZ-HR","http://hydrodata.info/chmi-h/cuahsi_1_1.asmx?wsdl","CHMI-H:1278","CHMI-H:PRUTOK",2014-07-27,2015-08-10,"Vyšní Lhoty",49.6266708374023,18.4636096954346,"Average","Field Observation","Water","hour",1
"1222","HYDRODATACZ-HR","http://hydrodata.info/chmi-h/cuahsi_1_1.asmx?wsdl","CHMI-H:1279","CHMI-H:PRUTOK",2014-07-27,2015-08-10,"Morávka",49.5849990844727,18.5327796936035,"Average","Field Observation","Water","hour",1
"1223","HYDRODATACZ-HR","http://hydrodata.info/chmi-h/cuahsi_1_1.asmx?wsdl","CHMI-H:1280","CHMI-H:PRUTOK",2014-07-27,2015-08-10,"Terlicko",49.7780609130859,18.5252799987793,"Average","Field Observation","Water","hour",1
"1224","HYDRODATACZ-HR","http://hydrodata.info/chmi-h/cuahsi_1_1.asmx?wsdl","CHMI-H:1281","CHMI-H:PRUTOK",2014-07-27,2015-08-10,"Žermanice",49.7333297729492,18.4466705322266,"Average","Field Observation","Water","hour",1
"1225","HYDRODATACZ-HR","http://hydrodata.info/chmi-h/cuahsi_1_1.asmx?wsdl","CHMI-H:1283","CHMI-H:PRUTOK",2014-07-27,2015-08-10,"Šance",49.5149993896484,18.4152793884277,"Average","Field Observation","Water","hour",1
"1226","HYDRODATACZ-HR","http://hydrodata.info/chmi-h/cuahsi_1_1.asmx?wsdl","CHMI-H:1286","CHMI-H:PRUTOK",2014-07-26,2015-08-10,"Horepník",49.5112762451172,15.1077480316162,"Average","Field Observation","Water","hour",1
"1381","HYDRODATACZ-HR","http://hydrodata.info/chmi-h/cuahsi_1_1.asmx?wsdl","CHMI-H:1282","CHMI-H:PRUTOK",2014-07-27,2015-07-28,"Bludovice",49.7480583190918,18.4349994659424,"Average","Field Observation","Water","hour",1
"1382","HYDRODATACZ-HR","http://hydrodata.info/chmi-h/cuahsi_1_1.asmx?wsdl","CHMI-H:1289","CHMI-H:PRUTOK",2014-07-27,2015-08-10,"VD Husinec",49.0402793884277,13.9958295822144,"Average","Field Observation","Water","hour",1
"1383","HYDRODATACZ-HR","http://hydrodata.info/chmi-h/cuahsi_1_1.asmx?wsdl","CHMI-H:1290","CHMI-H:PRUTOK",2014-07-27,2015-08-10,"Kamenice nad Lipou",49.2997207641602,15.0798101425171,"Average","Field Observation","Water","hour",1
"1384","HYDRODATACZ-HR","http://hydrodata.info/chmi-h/cuahsi_1_1.asmx?wsdl","CHMI-H:1249","CHMI-H:PRUTOK",2014-07-22,2015-01-02,"Malé Kyšice - Poteplí",50.0665893554688,14.0753059387207,"Average","Field Observation","Water","hour",1
"1385","HYDRODATACZ-HR","http://hydrodata.info/chmi-h/cuahsi_1_1.asmx?wsdl","CHMI-H:1014","CHMI-H:PRUTOK",2014-07-26,2015-08-10,"Pruhonice",49.9898300170898,14.5713291168213,"Average","Field Observation","Water","hour",1
"1386","HYDRODATACZ-HR","http://hydrodata.info/chmi-h/cuahsi_1_1.asmx?wsdl","CHMI-H:1250","CHMI-H:PRUTOK",2014-07-26,2015-08-10,"Košátky",50.3129730224609,14.6658296585083,"Average","Field Observation","Water","hour",1
"1387","HYDRODATACZ-HR","http://hydrodata.info/chmi-h/cuahsi_1_1.asmx?wsdl","CHMI-H:1251","CHMI-H:PRUTOK",2014-07-26,2015-08-10,"Želízy",50.4219436645508,14.4605560302734,"Average","Field Observation","Water","hour",1
"1388","HYDRODATACZ-HR","http://hydrodata.info/chmi-h/cuahsi_1_1.asmx?wsdl","CHMI-H:1252","CHMI-H:PRUTOK",2014-07-26,2015-08-10,"Dolní Bukovina",50.5363883972168,14.9375,"Average","Field Observation","Water","hour",1
"1389","HYDRODATACZ-HR","http://hydrodata.info/chmi-h/cuahsi_1_1.asmx?wsdl","CHMI-H:1253","CHMI-H:PRUTOK",2014-07-26,2015-08-05,"Velký Reckov",50.497501373291,14.8936100006104,"Average","Field Observation","Water","hour",1
"1390","HYDRODATACZ-HR","http://hydrodata.info/chmi-h/cuahsi_1_1.asmx?wsdl","CHMI-H:1254","CHMI-H:PRUTOK",2014-07-26,2015-08-10,"Mladá Boleslav",50.4105606079102,14.9091701507568,"Average","Field Observation","Water","hour",1
"1391","HYDRODATACZ-HR","http://hydrodata.info/chmi-h/cuahsi_1_1.asmx?wsdl","CHMI-H:1255","CHMI-H:PRUTOK",2014-07-26,2015-08-10,"Mezihorí",49.7044410705566,16.7436103820801,"Average","Field Observation","Water","hour",1
"1392","HYDRODATACZ-HR","http://hydrodata.info/chmi-h/cuahsi_1_1.asmx?wsdl","CHMI-H:1259","CHMI-H:PRUTOK",2014-07-27,2015-08-10,"Hranice",49.5499992370605,17.7333297729492,"Average","Field Observation","Water","hour",1
"1393","HYDRODATACZ-HR","http://hydrodata.info/chmi-h/cuahsi_1_1.asmx?wsdl","CHMI-H:624","CHMI-H:PRUTOK",2007-06-18,2015-08-10,"Staré Hamry",49.4577789306641,18.4605560302734,"Average","Field Observation","Water","hour",1
"1422","HYDRODATACZ-HR","http://hydrodata.info/chmi-h/cuahsi_1_1.asmx?wsdl","CHMI-H:131","CHMI-H:PRUTOK",2005-02-24,2015-08-10,"Louny",50.3583335876465,13.805832862854,"Average","Field Observation","Water","hour",1
"1583","HYDRODATACZ-HR","http://hydrodata.info/chmi-h/cuahsi_1_1.asmx?wsdl","CHMI-H:206","CHMI-H:PRUTOK",2005-02-23,2015-08-10,"Dašice",50.0374984741211,15.908332824707,"Average","Field Observation","Water","hour",1
"1685","HYDRODATACZ-HR","http://hydrodata.info/chmi-h/cuahsi_1_1.asmx?wsdl","CHMI-H:469","CHMI-H:PRUTOK",2006-08-08,2015-08-10,"Svídnice",49.8819427490234,15.8125,"Average","Field Observation","Water","hour",1
"1758","HYDRODATACZ-HR","http://hydrodata.info/chmi-h/cuahsi_1_1.asmx?wsdl","CHMI-H:1256","CHMI-H:PRUTOK",2014-07-26,2015-08-10,"Chornice",49.6647186279297,16.7513008117676,"Average","Field Observation","Water","hour",1
"1759","HYDRODATACZ-HR","http://hydrodata.info/chmi-h/cuahsi_1_1.asmx?wsdl","CHMI-H:1257","CHMI-H:PRUTOK",2014-07-26,2015-08-10,"Jaromerice",49.622501373291,16.7541694641113,"Average","Field Observation","Water","hour",1
"1760","HYDRODATACZ-HR","http://hydrodata.info/chmi-h/cuahsi_1_1.asmx?wsdl","CHMI-H:1258","CHMI-H:PRUTOK",2014-07-26,2015-08-10,"Zdechov",49.264720916748,18.0780601501465,"Average","Field Observation","Water","hour",1
"1761","HYDRODATACZ-HR","http://hydrodata.info/chmi-h/cuahsi_1_1.asmx?wsdl","CHMI-H:1260","CHMI-H:PRUTOK",2014-07-26,2015-08-10,"Netolice",49.0489311218262,14.2005596160889,"Average","Field Observation","Water","hour",1
"1762","HYDRODATACZ-HR","http://hydrodata.info/chmi-h/cuahsi_1_1.asmx?wsdl","CHMI-H:1262","CHMI-H:PRUTOK",2014-07-27,2015-08-10,"Sobesuky",49.4647216796875,16.9941692352295,"Average","Field Observation","Water","hour",1
"1763","HYDRODATACZ-HR","http://hydrodata.info/chmi-h/cuahsi_1_1.asmx?wsdl","CHMI-H:1263","CHMI-H:PRUTOK",2014-07-27,2015-08-10,"Korycany nad prehradou",49.1074981689453,17.2224998474121,"Average","Field Observation","Water","hour",1
"1764","HYDRODATACZ-HR","http://hydrodata.info/chmi-h/cuahsi_1_1.asmx?wsdl","CHMI-H:1264","CHMI-H:PRUTOK",2014-07-27,2015-08-10,"VD Korycany",49.1166687011719,17.1930599212646,"Average","Field Observation","Water","hour",1
"1765","HYDRODATACZ-HR","http://hydrodata.info/chmi-h/cuahsi_1_1.asmx?wsdl","CHMI-H:1265","CHMI-H:PRUTOK",2014-07-27,2015-08-10,"Rýmarov",49.9377784729004,17.2674999237061,"Average","Field Observation","Water","hour",1
"1766","HYDRODATACZ-HR","http://hydrodata.info/chmi-h/cuahsi_1_1.asmx?wsdl","CHMI-H:1266","CHMI-H:PRUTOK",2014-07-27,2015-08-10,"Sedlnice",49.6595573425293,18.0862350463867,"Average","Field Observation","Water","hour",1
"1767","HYDRODATACZ-HR","http://hydrodata.info/chmi-h/cuahsi_1_1.asmx?wsdl","CHMI-H:1267","CHMI-H:PRUTOK",2014-07-27,2015-08-10,"Tichá",49.5713958740234,18.2219142913818,"Average","Field Observation","Water","hour",1
"1768","HYDRODATACZ-HR","http://hydrodata.info/chmi-h/cuahsi_1_1.asmx?wsdl","CHMI-H:1268","CHMI-H:PRUTOK",2014-07-27,2015-08-10,"Jeseník nad Odrou",49.6130561828613,17.9046878814697,"Average","Field Observation","Water","hour",1
"1769","HYDRODATACZ-HR","http://hydrodata.info/chmi-h/cuahsi_1_1.asmx?wsdl","CHMI-H:1269","CHMI-H:PRUTOK",2014-07-27,2015-08-10,"Jablunkov - Lomná",49.5763893127441,18.7605590820312,"Average","Field Observation","Water","hour",1
"1770","HYDRODATACZ-HR","http://hydrodata.info/chmi-h/cuahsi_1_1.asmx?wsdl","CHMI-H:1270","CHMI-H:PRUTOK",2014-07-27,2015-08-10,"Polanka nad Odrou",49.7870445251465,18.1635417938232,"Average","Field Observation","Water","hour",1
"1771","HYDRODATACZ-HR","http://hydrodata.info/chmi-h/cuahsi_1_1.asmx?wsdl","CHMI-H:1271","CHMI-H:PRUTOK",2014-07-27,2015-08-10,"Smilovice",49.6711273193359,18.5769100189209,"Average","Field Observation","Water","hour",1
"1772","HYDRODATACZ-HR","http://hydrodata.info/chmi-h/cuahsi_1_1.asmx?wsdl","CHMI-H:1272","CHMI-H:PRUTOK",2014-07-27,2015-08-10,"Baška",49.6544494628906,18.3784523010254,"Average","Field Observation","Water","hour",1
"1773","HYDRODATACZ-HR","http://hydrodata.info/chmi-h/cuahsi_1_1.asmx?wsdl","CHMI-H:1273","CHMI-H:PRUTOK",2014-07-27,2015-08-10,"Palkovice",49.6399993896484,18.3197193145752,"Average","Field Observation","Water","hour",1
"1774","HYDRODATACZ-HR","http://hydrodata.info/chmi-h/cuahsi_1_1.asmx?wsdl","CHMI-H:1293","CHMI-H:PRUTOK",2014-07-27,2015-08-10,"Heidenreichstein",48.8627777099609,15.1153478622437,"Average","Field Observation","Water","hour",1
"1835","HYDRODATACZ-HR","http://hydrodata.info/chmi-h/cuahsi_1_1.asmx?wsdl","CHMI-H:207","CHMI-H:PRUTOK",2006-08-05,2015-08-10,"Otovice",50.5597229003906,16.380277633667,"Average","Field Observation","Water","hour",1
"1912","HYDRODATACZ-HR","http://hydrodata.info/chmi-h/cuahsi_1_1.asmx?wsdl","CHMI-H:468","CHMI-H:PRUTOK",2006-08-08,2015-08-10,"Bílek",49.7044448852539,15.7319440841675,"Average","Field Observation","Water","hour",1
"2167","HYDRODATACZ-HR","http://hydrodata.info/chmi-h/cuahsi_1_1.asmx?wsdl","CHMI-H:799","CHMI-H:PRUTOK",2010-05-30,2015-08-10,"Mnichov",50.1522216796875,17.3747215270996,"Average","Field Observation","Water","hour",1
"2189","HYDRODATACZ-HR","http://hydrodata.info/chmi-h/cuahsi_1_1.asmx?wsdl","CHMI-H:830","CHMI-H:PRUTOK",2011-01-11,2015-08-10,"Prosec nad Nisou",50.7244453430176,15.1322221755981,"Average","Field Observation","Water","hour",1
"2207","HYDRODATACZ-HR","http://hydrodata.info/chmi-h/cuahsi_1_1.asmx?wsdl","CHMI-H:838","CHMI-H:PRUTOK",2011-01-09,2015-08-10,"Luže",49.8872222900391,16.026388168335,"Average","Field Observation","Water","hour",1
"2303","HYDRODATACZ-HR","http://hydrodata.info/chmi-h/cuahsi_1_1.asmx?wsdl","CHMI-H:1274","CHMI-H:PRUTOK",2014-07-27,2015-08-10,"Olešná",49.6666717529297,18.3202800750732,"Average","Field Observation","Water","hour",1
"2304","HYDRODATACZ-HR","http://hydrodata.info/chmi-h/cuahsi_1_1.asmx?wsdl","CHMI-H:1291","CHMI-H:PRUTOK",2014-07-27,2015-08-10,"Gopprechts",48.8933067321777,15.0339975357056,"Average","Field Observation","Water","hour",1
"2305","HYDRODATACZ-HR","http://hydrodata.info/chmi-h/cuahsi_1_1.asmx?wsdl","CHMI-H:1292","CHMI-H:PRUTOK",2014-07-27,2015-08-10,"Altmanns",48.8753623962402,15.085428237915,"Average","Field Observation","Water","hour",1
"2318","HYDRODATACZ-HR","http://hydrodata.info/chmi-h/cuahsi_1_1.asmx?wsdl","CHMI-H:800","CHMI-H:PRUTOK",2010-05-30,2015-08-10,"Branka u Opavy",49.8944435119629,17.8919448852539,"Average","Field Observation","Water","hour",1
"2357","HYDRODATACZ-HR","http://hydrodata.info/chmi-h/cuahsi_1_1.asmx?wsdl","CHMI-H:138","CHMI-H:PRUTOK",2005-02-19,2015-08-10,"Dolní Ostrovec",49.4202766418457,14.1199998855591,"Average","Field Observation","Water","hour",1
"2446","HYDRODATACZ-HR","http://hydrodata.info/chmi-h/cuahsi_1_1.asmx?wsdl","CHMI-H:208","CHMI-H:PRUTOK",2005-02-23,2015-08-10,"Frýdlant",50.9233322143555,15.085277557373,"Average","Field Observation","Water","hour",1
"2803","HYDRODATACZ-HR","http://hydrodata.info/chmi-h/cuahsi_1_1.asmx?wsdl","CHMI-H:206","CHMI-H:PRUTOK",2005-02-23,2014-12-28,"Dašice",50.0374984741211,15.908332824707,"Average","Field Observation","Water","hour",1
"2804","HYDRODATACZ-HR","http://hydrodata.info/chmi-h/cuahsi_1_1.asmx?wsdl","CHMI-H:207","CHMI-H:PRUTOK",2006-08-05,2014-12-28,"Otovice",50.5597229003906,16.380277633667,"Average","Field Observation","Water","hour",1
"2805","HYDRODATACZ-HR","http://hydrodata.info/chmi-h/cuahsi_1_1.asmx?wsdl","CHMI-H:208","CHMI-H:PRUTOK",2005-02-23,2014-12-28,"Frýdlant",50.9233322143555,15.085277557373,"Average","Field Observation","Water","hour",1
"2806","HYDRODATACZ-HR","http://hydrodata.info/chmi-h/cuahsi_1_1.asmx?wsdl","CHMI-H:210","CHMI-H:PRUTOK",2005-03-09,2014-11-14,"Bohumín",49.9197235107422,18.3455562591553,"Average","Field Observation","Water","hour",1
"2807","HYDRODATACZ-HR","http://hydrodata.info/chmi-h/cuahsi_1_1.asmx?wsdl","CHMI-H:211","CHMI-H:PRUTOK",2007-03-29,2015-01-03,"Veverská Bítýška",49.2780570983887,16.4438896179199,"Average","Field Observation","Water","hour",1
"2808","HYDRODATACZ-HR","http://hydrodata.info/chmi-h/cuahsi_1_1.asmx?wsdl","CHMI-H:285","CHMI-H:PRUTOK",2014-12-30,2015-08-10,"VD Klabava",49.7505149841309,13.5481700897217,"Average","Field Observation","Water","hour",1
"2831","HYDRODATACZ-HR","http://hydrodata.info/chmi-h/cuahsi_1_1.asmx?wsdl","CHMI-H:492","CHMI-H:PRUTOK",2006-08-04,2015-08-10,"LG Žatec",50.3369445800781,13.5424995422363,"Average","Field Observation","Water","hour",1
"2846","HYDRODATACZ-HR","http://hydrodata.info/chmi-h/cuahsi_1_1.asmx?wsdl","CHMI-H:165","CHMI-H:PRUTOK",2005-06-17,2015-08-10,"Maršov nad Metují",50.5299987792969,16.1947231292725,"Average","Field Observation","Water","hour",1
"2889","HYDRODATACZ-HR","http://hydrodata.info/chmi-h/cuahsi_1_1.asmx?wsdl","CHMI-H:214","CHMI-H:PRUTOK",2005-02-22,2015-01-10,"Trebíc - Ptácov",49.2111129760742,15.8555555343628,"Average","Field Observation","Water","hour",1
"2890","HYDRODATACZ-HR","http://hydrodata.info/chmi-h/cuahsi_1_1.asmx?wsdl","CHMI-H:216","CHMI-H:PRUTOK",2005-06-28,2015-01-10,"Vlaské",50.0886116027832,16.9036102294922,"Average","Field Observation","Water","hour",1
"2986","HYDRODATACZ-HR","http://hydrodata.info/chmi-h/cuahsi_1_1.asmx?wsdl","CHMI-H:139","CHMI-H:PRUTOK",2005-02-27,2015-08-10,"Tajanov",49.406665802002,13.2633333206177,"Average","Field Observation","Water","hour",1
"3198","HYDRODATACZ-HR","http://hydrodata.info/chmi-h/cuahsi_1_1.asmx?wsdl","CHMI-H:210","CHMI-H:PRUTOK",2005-03-09,2015-08-10,"Bohumín",49.9197235107422,18.3455562591553,"Average","Field Observation","Water","hour",1
"3460","HYDRODATACZ-HR","http://hydrodata.info/chmi-h/cuahsi_1_1.asmx?wsdl","CHMI-H:88","CHMI-H:PRUTOK",2005-03-01,2015-01-10,"Židlochovice",49.0361099243164,16.6180553436279,"Average","Field Observation","Water","hour",1
"3461","HYDRODATACZ-HR","http://hydrodata.info/chmi-h/cuahsi_1_1.asmx?wsdl","CHMI-H:104","CHMI-H:PRUTOK",2005-06-13,2014-12-28,"Vestec",50.2400016784668,15.147777557373,"Average","Field Observation","Water","hour",1
"3462","HYDRODATACZ-HR","http://hydrodata.info/chmi-h/cuahsi_1_1.asmx?wsdl","CHMI-H:105","CHMI-H:PRUTOK",2005-02-09,2015-01-03,"Valašské Mezirící",49.4638900756836,17.9750003814697,"Average","Field Observation","Water","hour",1
"3463","HYDRODATACZ-HR","http://hydrodata.info/chmi-h/cuahsi_1_1.asmx?wsdl","CHMI-H:106","CHMI-H:PRUTOK",2005-03-14,2014-12-28,"Nový Bydžov",50.2416648864746,15.5080556869507,"Average","Field Observation","Water","hour",1
"3464","HYDRODATACZ-HR","http://hydrodata.info/chmi-h/cuahsi_1_1.asmx?wsdl","CHMI-H:107","CHMI-H:PRUTOK",2005-02-19,2015-08-10,"Vyšší Brod",48.6497230529785,14.3138885498047,"Average","Field Observation","Water","hour",1
"3465","HYDRODATACZ-HR","http://hydrodata.info/chmi-h/cuahsi_1_1.asmx?wsdl","CHMI-H:108","CHMI-H:PRUTOK",2005-01-23,2014-12-27,"Melník",50.3527793884277,14.47194480896,"Average","Field Observation","Water","hour",1
"3466","HYDRODATACZ-HR","http://hydrodata.info/chmi-h/cuahsi_1_1.asmx?wsdl","CHMI-H:109","CHMI-H:PRUTOK",2005-02-24,2014-12-28,"Cermná nad Orlicí",50.0783348083496,16.1372222900391,"Average","Field Observation","Water","hour",1
"3467","HYDRODATACZ-HR","http://hydrodata.info/chmi-h/cuahsi_1_1.asmx?wsdl","CHMI-H:110","CHMI-H:PRUTOK",2005-02-25,2014-11-17,"Opava",49.9305572509766,17.8783321380615,"Average","Field Observation","Water","hour",1
"3468","HYDRODATACZ-HR","http://hydrodata.info/chmi-h/cuahsi_1_1.asmx?wsdl","CHMI-H:111","CHMI-H:PRUTOK",2005-02-22,2014-11-17,"Ostrava",49.8474998474121,18.2952785491943,"Average","Field Observation","Water","hour",1
"3469","HYDRODATACZ-HR","http://hydrodata.info/chmi-h/cuahsi_1_1.asmx?wsdl","CHMI-H:112","CHMI-H:PRUTOK",2005-02-21,2014-12-28,"Mitrov",50.2108345031738,16.0233325958252,"Average","Field Observation","Water","hour",1
"3470","HYDRODATACZ-HR","http://hydrodata.info/chmi-h/cuahsi_1_1.asmx?wsdl","CHMI-H:113","CHMI-H:PRUTOK",2005-02-23,2015-01-10,"Raškov",50.0411109924316,16.9127769470215,"Average","Field Observation","Water","hour",1
"3471","HYDRODATACZ-HR","http://hydrodata.info/chmi-h/cuahsi_1_1.asmx?wsdl","CHMI-H:114","CHMI-H:PRUTOK",2005-03-12,2014-12-28,"Jablonec nad Jizerou",50.6949996948242,15.4394445419312,"Average","Field Observation","Water","hour",1
"3472","HYDRODATACZ-HR","http://hydrodata.info/chmi-h/cuahsi_1_1.asmx?wsdl","CHMI-H:115","CHMI-H:PRUTOK",2005-01-23,2015-01-10,"Spytihnev",49.1322212219238,17.5030555725098,"Average","Field Observation","Water","hour",1
"3473","HYDRODATACZ-HR","http://hydrodata.info/chmi-h/cuahsi_1_1.asmx?wsdl","CHMI-H:117","CHMI-H:PRUTOK",2005-06-13,2014-12-28,"Mezimestí",50.6263885498047,16.2305564880371,"Average","Field Observation","Water","hour",1
"3474","HYDRODATACZ-HR","http://hydrodata.info/chmi-h/cuahsi_1_1.asmx?wsdl","CHMI-H:118","CHMI-H:PRUTOK",2005-02-24,2014-12-28,"Týnište nad Orlicí",50.1488876342773,16.0699996948242,"Average","Field Observation","Water","hour",1
"3475","HYDRODATACZ-HR","http://hydrodata.info/chmi-h/cuahsi_1_1.asmx?wsdl","CHMI-H:119","CHMI-H:PRUTOK",2005-02-22,2015-08-10,"Vsetín",49.3333320617676,17.9833335876465,"Average","Field Observation","Water","hour",1
"3476","HYDRODATACZ-HR","http://hydrodata.info/chmi-h/cuahsi_1_1.asmx?wsdl","CHMI-H:120","CHMI-H:PRUTOK",2005-02-24,2015-01-03,"Kromeríž",49.2997207641602,17.3780555725098,"Average","Field Observation","Water","hour",1
"3477","HYDRODATACZ-HR","http://hydrodata.info/chmi-h/cuahsi_1_1.asmx?wsdl","CHMI-H:121","CHMI-H:PRUTOK",2005-01-23,2015-01-03,"Uherský Brod",49.0313873291016,17.6627769470215,"Average","Field Observation","Water","hour",1
"3478","HYDRODATACZ-HR","http://hydrodata.info/chmi-h/cuahsi_1_1.asmx?wsdl","CHMI-H:122","CHMI-H:PRUTOK",2005-03-04,2014-12-28,"Sány",50.1277770996094,15.243332862854,"Average","Field Observation","Water","hour",1
"3479","HYDRODATACZ-HR","http://hydrodata.info/chmi-h/cuahsi_1_1.asmx?wsdl","CHMI-H:124","CHMI-H:PRUTOK",2005-03-01,2014-11-20,"Krnov",50.0888900756836,17.710277557373,"Average","Field Observation","Water","hour",1
"3480","HYDRODATACZ-HR","http://hydrodata.info/chmi-h/cuahsi_1_1.asmx?wsdl","CHMI-H:126","CHMI-H:PRUTOK",2005-02-23,2015-08-10,"Ceská Skalice",50.3972206115723,16.0491676330566,"Average","Field Observation","Water","hour",1
"3481","HYDRODATACZ-HR","http://hydrodata.info/chmi-h/cuahsi_1_1.asmx?wsdl","CHMI-H:132","CHMI-H:PRUTOK",2005-01-23,2014-12-28,"Bílý Potok",50.8766670227051,15.2122220993042,"Average","Field Observation","Water","hour",1
"3482","HYDRODATACZ-HR","http://hydrodata.info/chmi-h/cuahsi_1_1.asmx?wsdl","CHMI-H:148","CHMI-H:PRUTOK",2005-03-08,2015-01-10,"Cheb - VD Skalka",50.0861129760742,12.3866662979126,"Average","Field Observation","Water","hour",1
"3483","HYDRODATACZ-HR","http://hydrodata.info/chmi-h/cuahsi_1_1.asmx?wsdl","CHMI-H:149","CHMI-H:PRUTOK",2005-02-21,2015-01-03,"Sviadnov",49.6866683959961,18.3400001525879,"Average","Field Observation","Water","hour",1
"3484","HYDRODATACZ-HR","http://hydrodata.info/chmi-h/cuahsi_1_1.asmx?wsdl","CHMI-H:150","CHMI-H:PRUTOK",2005-02-18,2015-01-10,"Bílovice nad Svitavou",48.9502792358398,17.463888168335,"Average","Field Observation","Water","hour",1
"3485","HYDRODATACZ-HR","http://hydrodata.info/chmi-h/cuahsi_1_1.asmx?wsdl","CHMI-H:152","CHMI-H:PRUTOK",2005-02-24,2014-12-28,"Prelouc",50.0452766418457,15.5747222900391,"Average","Field Observation","Water","hour",1
"3486","HYDRODATACZ-HR","http://hydrodata.info/chmi-h/cuahsi_1_1.asmx?wsdl","CHMI-H:153","CHMI-H:PRUTOK",2005-06-17,2014-12-28,"Horní Maršov",50.6624984741211,15.817777633667,"Average","Field Observation","Water","hour",1
"3487","HYDRODATACZ-HR","http://hydrodata.info/chmi-h/cuahsi_1_1.asmx?wsdl","CHMI-H:154","CHMI-H:PRUTOK",2005-03-07,2014-11-16,"Vernovice",49.9311103820801,18.4211101531982,"Average","Field Observation","Water","hour",1
"3488","HYDRODATACZ-HR","http://hydrodata.info/chmi-h/cuahsi_1_1.asmx?wsdl","CHMI-H:155","CHMI-H:PRUTOK",2005-02-22,2014-12-28,"Nemošice",50.0169448852539,15.7927780151367,"Average","Field Observation","Water","hour",1
"3489","HYDRODATACZ-HR","http://hydrodata.info/chmi-h/cuahsi_1_1.asmx?wsdl","CHMI-H:156","CHMI-H:PRUTOK",2005-02-28,2015-08-10,"Trávní Dvur",48.7911109924316,16.4391670227051,"Average","Field Observation","Water","hour",1
"3491","HYDRODATACZ-HR","http://hydrodata.info/chmi-h/cuahsi_1_1.asmx?wsdl","CHMI-H:161","CHMI-H:PRUTOK",2005-02-22,2014-12-28,"Kostelec nad Orlicí",50.1205558776855,16.1983337402344,"Average","Field Observation","Water","hour",1
"3492","HYDRODATACZ-HR","http://hydrodata.info/chmi-h/cuahsi_1_1.asmx?wsdl","CHMI-H:93","CHMI-H:PRUTOK",2005-02-25,2014-12-28,"Slatina nad Zdobnicí",50.1372222900391,16.3883323669434,"Average","Field Observation","Water","hour",1
"3493","HYDRODATACZ-HR","http://hydrodata.info/chmi-h/cuahsi_1_1.asmx?wsdl","CHMI-H:96","CHMI-H:PRUTOK",2005-02-24,2014-12-28,"Hrádek nad Nisou",50.8572235107422,14.8294439315796,"Average","Field Observation","Water","hour",1
"3494","HYDRODATACZ-HR","http://hydrodata.info/chmi-h/cuahsi_1_1.asmx?wsdl","CHMI-H:97","CHMI-H:PRUTOK",2005-03-03,2014-11-19,"Svinov",49.820556640625,18.2188892364502,"Average","Field Observation","Water","hour",1
"3495","HYDRODATACZ-HR","http://hydrodata.info/chmi-h/cuahsi_1_1.asmx?wsdl","CHMI-H:98","CHMI-H:PRUTOK",2005-03-09,2015-01-03,"Moravicany",49.7558326721191,16.9775009155273,"Average","Field Observation","Water","hour",1
"3496","HYDRODATACZ-HR","http://hydrodata.info/chmi-h/cuahsi_1_1.asmx?wsdl","CHMI-H:99","CHMI-H:PRUTOK",2005-06-13,2014-12-28,"Cerekvice nad Loucnou",49.901668548584,16.2133331298828,"Average","Field Observation","Water","hour",1
"3497","HYDRODATACZ-HR","http://hydrodata.info/chmi-h/cuahsi_1_1.asmx?wsdl","CHMI-H:100","CHMI-H:PRUTOK",2005-06-08,2015-01-10,"Teplice nad Becvou",49.5305557250977,17.7477779388428,"Average","Field Observation","Water","hour",1
"3498","HYDRODATACZ-HR","http://hydrodata.info/chmi-h/cuahsi_1_1.asmx?wsdl","CHMI-H:101","CHMI-H:PRUTOK",2005-01-24,2015-08-10,"Dolní Loucky",49.3577766418457,16.3616676330566,"Average","Field Observation","Water","hour",1
"3499","HYDRODATACZ-HR","http://hydrodata.info/chmi-h/cuahsi_1_1.asmx?wsdl","CHMI-H:102","CHMI-H:PRUTOK",2005-06-13,2014-12-28,"Lázne Belohrad",50.4322204589844,15.5861110687256,"Average","Field Observation","Water","hour",1
"3500","HYDRODATACZ-HR","http://hydrodata.info/chmi-h/cuahsi_1_1.asmx?wsdl","CHMI-H:133","CHMI-H:PRUTOK",2005-04-14,2014-12-28,"Chábory",50.2702789306641,16.1961116790771,"Average","Field Observation","Water","hour",1
"3501","HYDRODATACZ-HR","http://hydrodata.info/chmi-h/cuahsi_1_1.asmx?wsdl","CHMI-H:134","CHMI-H:PRUTOK",2005-02-24,2015-01-10,"Lupené",49.8672218322754,16.8402786254883,"Average","Field Observation","Water","hour",1
"3502","HYDRODATACZ-HR","http://hydrodata.info/chmi-h/cuahsi_1_1.asmx?wsdl","CHMI-H:135","CHMI-H:PRUTOK",2005-01-23,2015-01-03,"Zlín",49.2308349609375,17.6741676330566,"Average","Field Observation","Water","hour",1
"3503","HYDRODATACZ-HR","http://hydrodata.info/chmi-h/cuahsi_1_1.asmx?wsdl","CHMI-H:136","CHMI-H:PRUTOK",2005-07-24,2015-08-10,"Bransouze",49.3038902282715,15.7547225952148,"Average","Field Observation","Water","hour",1
"3504","HYDRODATACZ-HR","http://hydrodata.info/chmi-h/cuahsi_1_1.asmx?wsdl","CHMI-H:137","CHMI-H:PRUTOK",2005-06-17,2014-12-28,"Úhretice",49.978889465332,15.8758335113525,"Average","Field Observation","Water","hour",1
"3505","HYDRODATACZ-HR","http://hydrodata.info/chmi-h/cuahsi_1_1.asmx?wsdl","CHMI-H:140","CHMI-H:PRUTOK",2005-03-20,2015-01-03,"Odry",49.6655540466309,17.8397216796875,"Average","Field Observation","Water","hour",1
"3506","HYDRODATACZ-HR","http://hydrodata.info/chmi-h/cuahsi_1_1.asmx?wsdl","CHMI-H:143","CHMI-H:PRUTOK",2005-03-13,2015-08-10,"Loštice",49.7447204589844,16.9325008392334,"Average","Field Observation","Water","hour",1
"3507","HYDRODATACZ-HR","http://hydrodata.info/chmi-h/cuahsi_1_1.asmx?wsdl","CHMI-H:162","CHMI-H:PRUTOK",2005-01-23,2014-12-28,"Bakov nad Jizerou",50.4805564880371,14.9391670227051,"Average","Field Observation","Water","hour",1
"3508","HYDRODATACZ-HR","http://hydrodata.info/chmi-h/cuahsi_1_1.asmx?wsdl","CHMI-H:164","CHMI-H:PRUTOK",2005-06-23,2015-08-10,"Ceský Tešín",49.718334197998,18.6297225952148,"Average","Field Observation","Water","hour",1
"3509","HYDRODATACZ-HR","http://hydrodata.info/chmi-h/cuahsi_1_1.asmx?wsdl","CHMI-H:165","CHMI-H:PRUTOK",2005-06-17,2014-12-28,"Maršov nad Metují",50.5299987792969,16.1947231292725,"Average","Field Observation","Water","hour",1
"3510","HYDRODATACZ-HR","http://hydrodata.info/chmi-h/cuahsi_1_1.asmx?wsdl","CHMI-H:167","CHMI-H:PRUTOK",2005-03-11,2014-11-14,"Krnov",50.0977783203125,17.6961116790771,"Average","Field Observation","Water","hour",1
"3511","HYDRODATACZ-HR","http://hydrodata.info/chmi-h/cuahsi_1_1.asmx?wsdl","CHMI-H:168","CHMI-H:PRUTOK",2005-06-13,2014-12-28,"Jicín",50.4422225952148,15.3599996566772,"Average","Field Observation","Water","hour",1
"3512","HYDRODATACZ-HR","http://hydrodata.info/chmi-h/cuahsi_1_1.asmx?wsdl","CHMI-H:171","CHMI-H:PRUTOK",2005-02-23,2014-12-28,"Ústí nad Labem",50.6538887023926,14.0438890457153,"Average","Field Observation","Water","hour",1
"3513","HYDRODATACZ-HR","http://hydrodata.info/chmi-h/cuahsi_1_1.asmx?wsdl","CHMI-H:172","CHMI-H:PRUTOK",2005-01-23,2015-01-03,"Strážnice",48.8991661071777,17.3380546569824,"Average","Field Observation","Water","hour",1
"3514","HYDRODATACZ-HR","http://hydrodata.info/chmi-h/cuahsi_1_1.asmx?wsdl","CHMI-H:176","CHMI-H:PRUTOK",2005-02-20,2014-12-28,"Nemcice",50.0952796936035,15.8094444274902,"Average","Field Observation","Water","hour",1
"3611","HYDRODATACZ-HR","http://hydrodata.info/chmi-h/cuahsi_1_1.asmx?wsdl","CHMI-H:141","CHMI-H:PRUTOK",2005-02-25,2015-08-10,"Licov",48.7261123657227,14.5744438171387,"Average","Field Observation","Water","hour",1
"3719","HYDRODATACZ-HR","http://hydrodata.info/chmi-h/cuahsi_1_1.asmx?wsdl","CHMI-H:145","CHMI-H:PRUTOK",2005-02-28,2015-08-10,"Lásenice",49.0741653442383,14.9661111831665,"Average","Field Observation","Water","hour",1
"3748","HYDRODATACZ-HR","http://hydrodata.info/chmi-h/cuahsi_1_1.asmx?wsdl","CHMI-H:93","CHMI-H:PRUTOK",2005-02-25,2015-08-10,"Slatina nad Zdobnicí",50.1372222900391,16.3883323669434,"Average","Field Observation","Water","hour",1
"3809","HYDRODATACZ-HR","http://hydrodata.info/chmi-h/cuahsi_1_1.asmx?wsdl","CHMI-H:474","CHMI-H:PRUTOK",2006-08-08,2015-08-10,"VD Les Království",50.4550018310547,15.7736110687256,"Average","Field Observation","Water","hour",1
"4108","HYDRODATACZ-HR","http://hydrodata.info/chmi-h/cuahsi_1_1.asmx?wsdl","CHMI-H:286","CHMI-H:PRUTOK",2014-12-30,2015-08-10,"VD Klícava",50.0643043518066,13.9338312149048,"Average","Field Observation","Water","hour",1
"4124","HYDRODATACZ-HR","http://hydrodata.info/chmi-h/cuahsi_1_1.asmx?wsdl","CHMI-H:128","CHMI-H:PRUTOK",2005-02-25,2015-08-10,"Bílá Hora",49.7663879394531,13.402777671814,"Average","Field Observation","Water","hour",1
"4160","HYDRODATACZ-HR","http://hydrodata.info/chmi-h/cuahsi_1_1.asmx?wsdl","CHMI-H:495","CHMI-H:PRUTOK",2006-08-04,2015-08-10,"Stráž pod Ralskem",50.7033348083496,14.8083333969116,"Average","Field Observation","Water","hour",1
"4214","HYDRODATACZ-HR","http://hydrodata.info/chmi-h/cuahsi_1_1.asmx?wsdl","CHMI-H:191","CHMI-H:PRUTOK",2005-03-09,2015-01-10,"Podhradí nad Dyjí",48.9036102294922,15.6902780532837,"Average","Field Observation","Water","hour",1
"4215","HYDRODATACZ-HR","http://hydrodata.info/chmi-h/cuahsi_1_1.asmx?wsdl","CHMI-H:174","CHMI-H:PRUTOK",2005-08-23,2014-12-28,"VD Vrané",49.9394454956055,14.3772220611572,"Average","Field Observation","Water","hour",1
"4216","HYDRODATACZ-HR","http://hydrodata.info/chmi-h/cuahsi_1_1.asmx?wsdl","CHMI-H:175","CHMI-H:PRUTOK",2005-03-05,2014-11-17,"Jablunkov",49.595832824707,18.7433338165283,"Average","Field Observation","Water","hour",1
"4217","HYDRODATACZ-HR","http://hydrodata.info/chmi-h/cuahsi_1_1.asmx?wsdl","CHMI-H:192","CHMI-H:PRUTOK",2005-02-19,2015-01-03,"Dalecín",49.5952796936035,16.2466678619385,"Average","Field Observation","Water","hour",1
"4218","HYDRODATACZ-HR","http://hydrodata.info/chmi-h/cuahsi_1_1.asmx?wsdl","CHMI-H:193","CHMI-H:PRUTOK",2005-02-19,2015-01-10,"Janov",48.9933319091797,15.4366664886475,"Average","Field Observation","Water","hour",1
"4219","HYDRODATACZ-HR","http://hydrodata.info/chmi-h/cuahsi_1_1.asmx?wsdl","CHMI-H:194","CHMI-H:PRUTOK",2005-03-08,2015-01-03,"Olomouc - Nové Sady",49.5774993896484,17.2627773284912,"Average","Field Observation","Water","hour",1
"4220","HYDRODATACZ-HR","http://hydrodata.info/chmi-h/cuahsi_1_1.asmx?wsdl","CHMI-H:200","CHMI-H:PRUTOK",2008-02-27,2014-12-28,"Jaromer",50.3427772521973,15.9274997711182,"Average","Field Observation","Water","hour",1
"4221","HYDRODATACZ-HR","http://hydrodata.info/chmi-h/cuahsi_1_1.asmx?wsdl","CHMI-H:201","CHMI-H:PRUTOK",2013-02-07,2015-08-10,"Jaromer",50.3413009643555,15.9259996414185,"Average","Field Observation","Water","hour",1
"4222","HYDRODATACZ-HR","http://hydrodata.info/chmi-h/cuahsi_1_1.asmx?wsdl","CHMI-H:202","CHMI-H:PRUTOK",2005-03-11,2014-12-28,"Železný Brod",50.6402778625488,15.2769441604614,"Average","Field Observation","Water","hour",1
"4223","HYDRODATACZ-HR","http://hydrodata.info/chmi-h/cuahsi_1_1.asmx?wsdl","CHMI-H:204","CHMI-H:PRUTOK",2005-02-25,2014-11-18,"Dehylov",49.8794441223145,18.1794452667236,"Average","Field Observation","Water","hour",1
"4224","HYDRODATACZ-HR","http://hydrodata.info/chmi-h/cuahsi_1_1.asmx?wsdl","CHMI-H:205","CHMI-H:PRUTOK",2005-02-23,2015-01-10,"Dluhonice",49.4494438171387,17.4113883972168,"Average","Field Observation","Water","hour",1
"4225","HYDRODATACZ-HR","http://hydrodata.info/chmi-h/cuahsi_1_1.asmx?wsdl","CHMI-H:177","CHMI-H:PRUTOK",2005-02-24,2015-08-10,"Rozhraní",49.6005554199219,16.5336112976074,"Average","Field Observation","Water","hour",1
"4226","HYDRODATACZ-HR","http://hydrodata.info/chmi-h/cuahsi_1_1.asmx?wsdl","CHMI-H:178","CHMI-H:PRUTOK",2005-01-23,2015-01-03,"Oslavany",49.1166648864746,16.3455562591553,"Average","Field Observation","Water","hour",1
"4227","HYDRODATACZ-HR","http://hydrodata.info/chmi-h/cuahsi_1_1.asmx?wsdl","CHMI-H:179","CHMI-H:PRUTOK",2005-03-18,2014-12-28,"Žleby",49.889720916748,15.4786109924316,"Average","Field Observation","Water","hour",1
"4228","HYDRODATACZ-HR","http://hydrodata.info/chmi-h/cuahsi_1_1.asmx?wsdl","CHMI-H:180","CHMI-H:PRUTOK",2005-02-24,2014-12-27,"Brandýs nad Labem",50.1897239685059,14.6613893508911,"Average","Field Observation","Water","hour",1
"4229","HYDRODATACZ-HR","http://hydrodata.info/chmi-h/cuahsi_1_1.asmx?wsdl","CHMI-H:182","CHMI-H:PRUTOK",2005-02-27,2015-01-03,"Ivancice",49.083610534668,16.4127769470215,"Average","Field Observation","Water","hour",1
"4230","HYDRODATACZ-HR","http://hydrodata.info/chmi-h/cuahsi_1_1.asmx?wsdl","CHMI-H:184","CHMI-H:PRUTOK",2005-02-26,2014-12-28,"Krcín",50.3516654968262,16.1324996948242,"Average","Field Observation","Water","hour",1
"4231","HYDRODATACZ-HR","http://hydrodata.info/chmi-h/cuahsi_1_1.asmx?wsdl","CHMI-H:185","CHMI-H:PRUTOK",2007-12-14,2014-12-28,"Decín",50.7900009155273,14.2291669845581,"Average","Field Observation","Water","hour",1
"4232","HYDRODATACZ-HR","http://hydrodata.info/chmi-h/cuahsi_1_1.asmx?wsdl","CHMI-H:186","CHMI-H:PRUTOK",2005-02-14,2014-12-28,"Liberec",50.7677764892578,15.0524997711182,"Average","Field Observation","Water","hour",1
"4233","HYDRODATACZ-HR","http://hydrodata.info/chmi-h/cuahsi_1_1.asmx?wsdl","CHMI-H:187","CHMI-H:PRUTOK",2008-02-27,2014-12-28,"Predmerice",50.2491683959961,14.7772226333618,"Average","Field Observation","Water","hour",1
"4234","HYDRODATACZ-HR","http://hydrodata.info/chmi-h/cuahsi_1_1.asmx?wsdl","CHMI-H:188","CHMI-H:PRUTOK",2005-03-04,2014-12-28,"Vestrev",50.5155563354492,15.7430553436279,"Average","Field Observation","Water","hour",1
"4235","HYDRODATACZ-HR","http://hydrodata.info/chmi-h/cuahsi_1_1.asmx?wsdl","CHMI-H:189","CHMI-H:PRUTOK",2005-06-13,2014-12-28,"Dolní Libchavy",49.9888877868652,16.3986110687256,"Average","Field Observation","Water","hour",1
"4236","HYDRODATACZ-HR","http://hydrodata.info/chmi-h/cuahsi_1_1.asmx?wsdl","CHMI-H:190","CHMI-H:PRUTOK",2005-02-23,2014-12-28,"Hylváty",49.9538879394531,16.4172229766846,"Average","Field Observation","Water","hour",1
"4237","HYDRODATACZ-HR","http://hydrodata.info/chmi-h/cuahsi_1_1.asmx?wsdl","CHMI-H:490","CHMI-H:PRUTOK",2006-08-04,2015-08-10,"Klášterec nad Ohrí",50.3839950561523,13.1810159683228,"Average","Field Observation","Water","hour",1
"4238","HYDRODATACZ-HR","http://hydrodata.info/chmi-h/cuahsi_1_1.asmx?wsdl","CHMI-H:491","CHMI-H:PRUTOK",2006-08-04,2015-08-10,"Stranná",50.3683929443359,13.4445772171021,"Average","Field Observation","Water","hour",1
"4239","HYDRODATACZ-HR","http://hydrodata.info/chmi-h/cuahsi_1_1.asmx?wsdl","CHMI-H:493","CHMI-H:PRUTOK",2006-08-04,2015-01-03,"Tretí Mlýn",50.4994430541992,13.3325004577637,"Average","Field Observation","Water","hour",1
"4240","HYDRODATACZ-HR","http://hydrodata.info/chmi-h/cuahsi_1_1.asmx?wsdl","CHMI-H:501","CHMI-H:PRUTOK",2006-08-03,2015-01-10,"Šumperk",49.9580574035645,16.9716663360596,"Average","Field Observation","Water","hour",1
"4241","HYDRODATACZ-HR","http://hydrodata.info/chmi-h/cuahsi_1_1.asmx?wsdl","CHMI-H:502","CHMI-H:PRUTOK",2006-08-05,2015-08-10,"Jindrichov",50.0949249267578,16.9808921813965,"Average","Field Observation","Water","hour",1
"4242","HYDRODATACZ-HR","http://hydrodata.info/chmi-h/cuahsi_1_1.asmx?wsdl","CHMI-H:503","CHMI-H:PRUTOK",2006-08-05,2015-01-10,"Jemnice",49.0172233581543,15.5805559158325,"Average","Field Observation","Water","hour",1
"4243","HYDRODATACZ-HR","http://hydrodata.info/chmi-h/cuahsi_1_1.asmx?wsdl","CHMI-H:167","CHMI-H:PRUTOK",2005-03-11,2015-08-10,"Krnov",50.0977783203125,17.6961116790771,"Average","Field Observation","Water","hour",1
"4318","HYDRODATACZ-HR","http://hydrodata.info/chmi-h/cuahsi_1_1.asmx?wsdl","CHMI-H:142","CHMI-H:PRUTOK",2005-03-04,2015-08-10,"Modrava",49.9677772521973,12.5027780532837,"Average","Field Observation","Water","hour",1
"4385","HYDRODATACZ-HR","http://hydrodata.info/chmi-h/cuahsi_1_1.asmx?wsdl","CHMI-H:953","CHMI-H:PRUTOK",2014-12-28,2015-08-10,"VD Humenice",48.7742614746094,14.7429237365723,"Average","Field Observation","Water","hour",1
"4531","HYDRODATACZ-HR","http://hydrodata.info/chmi-h/cuahsi_1_1.asmx?wsdl","CHMI-H:96","CHMI-H:PRUTOK",2005-02-24,2015-08-10,"Hrádek nad Nisou",50.8572235107422,14.8294439315796,"Average","Field Observation","Water","hour",1
"4562","HYDRODATACZ-HR","http://hydrodata.info/chmi-h/cuahsi_1_1.asmx?wsdl","CHMI-H:476","CHMI-H:PRUTOK",2006-08-06,2015-08-10,"VD Labská",50.7111129760742,15.5866670608521,"Average","Field Observation","Water","hour",1
"4639","HYDRODATACZ-HR","http://hydrodata.info/chmi-h/cuahsi_1_1.asmx?wsdl","CHMI-H:488","CHMI-H:PRUTOK",2006-08-04,2015-08-10,"Teplicka",50.1533317565918,12.8488893508911,"Average","Field Observation","Water","hour",1
"4997","HYDRODATACZ-HR","http://hydrodata.info/chmi-h/cuahsi_1_1.asmx?wsdl","CHMI-H:144","CHMI-H:PRUTOK",2005-02-19,2015-08-10,"Trpísty",49.8286094665527,13.0655555725098,"Average","Field Observation","Water","hour",1
"5102","HYDRODATACZ-HR","http://hydrodata.info/chmi-h/cuahsi_1_1.asmx?wsdl","CHMI-H:97","CHMI-H:PRUTOK",2005-03-03,2015-08-10,"Svinov",49.820556640625,18.2188892364502,"Average","Field Observation","Water","hour",1
